{
  "eventDir" : "/events/PAAQ/2025/07/29/t06p1k/34/WEAK51/",
  "thisDocGenerated" : "Thu Jul 31 12:21:09 UTC 2025",
  "thisDoc" : "/tsunami_ops_data/web/htdocs/events/json/PAAQWEAK51.json",
  "TWCID" : "PAAQ",
  "WMOID" : "WEAK51",
  "eventMagnitude" : 8.8,
  "eventMagnitudeType" : "Mwp",
  "eventDepth" : 74,
  "eventDepthType" : "kilometers",
  "eventLat" : 52.200,
  "eventLon" : 160.000,
  "originTime" : "2025-07-29T23:24:56 UTC",
  "bulletinIssueTime" : "2025-07-31T12:20:25Z",
  "quakeLocation" : "315 miles SW of Bering I., Komandorski",
  "issueYear" : "2025",
  "issueMonth" : "07",
  "issueDay" : "29",
  "twcEventID" : "t06p1k",
  "bulletinNr" : "34",
  "rootURL" : "/events/",
   "alerts" : {"areaList":[[{"twc":"PAAQ","bkp_start_location":"Humboldt/Del Norte Line, California","bkp_start_lon":-124.06600189208984,"bkp_end_lat":42,"bkp_end_location":"The Oregon/Cal. Border","bkp_start_lat":41.46500015258789,"bkp_end_lon":-124.21700286865234,"productDef":"Tsunami advisories mean that a tsunami capable of producing  strong currents or waves dangerous to people in or very near the  water is expected.  Significant widespread inundation  is not expected for areas under an advisory.  Currents may be  hazardous to swimmers, boats, and coastal structures and may  continue for several hours after the initial wave arrival.  ","WMOID":"WEAK51","category":"Advisory","headLine":" The tsunami Advisory remains in effect for the coastal areas of California from Humboldt/Del Norte Line, California to The Oregon/Cal. Border.  "}]]},
   "segments" : [ 
  
    {
       "id" : 1, 
       "category" : "Advisory", 
       "NWSZones" : "CAZ101-311450-", 

       "headline" : "The tsunami Advisory remains in effect for the coastal areas of California from Humboldt/Del Norte Line, California to The Oregon/Cal. Border.",


       "bkp_start_location" : "Humboldt/Del Norte Line, California","bkp_start_lat" : 41.465,
          "bkp_start_lon" : -124.066,"bkp_end_location" : "The Oregon/Cal. Border","bkp_end_lat" : 42.000,
          "bkp_end_lon" : -124.217,"recommendedActions" : "Actions to protect human life and property willvary within tsunami advisory areas.If you are in a tsunami advisory area: * Move out of the water, off the beach, and away from harbors, marinas, bays, and inlets. * Be alert to and follow instructions from your local emergency officials because they may have more detailed or specific information for your location. * If you feel a strong earthquake or extended ground rolling take immediate protective actions such as moving inland and/or uphill preferably by foot. * Boat operators:   * Where time and conditions permit, move your boat out to sea to a depth of at least 180 feet.   * If at sea avoid entering shallow water, harbors, marinas, bays, and inlets to avoid floating and submerged debris, and strong currents. * Do not go to the shore to observe the tsunami. * Do not return to the coast until local emergency officials indicate it is safe to do so.",
       "productDefinition" : "Tsunami advisories mean that a tsunami capable of producing strong currents or waves dangerous to people in or very near the water is expected.  Significant widespread inundation is not expected for areas under an advisory.  Currents may be hazardous to swimmers, boats, and coastal structures and may continue for several hours after the initial wave arrival. " } 
   ], 
  "actions" : [ 
  
    {
       "otherCenterActions" : "Pacific coastal regions outside California, Oregon, Washington, British Columbia, and Alaska should refer to the Pacific Tsunami Warning Center messages for information on this event at tsunami.gov. ", 
       "nextActions" : "Additional Information and Next Update:  * The tsunami message will remain in effect until further notice.  * Refer to the internet site tsunami.gov for more information. * This message will be updated in 120 minutes or sooner if the situation warrants. " } 
   ], 
  
 "breakpointZones" : [ 
 ], 
 "breakpointLocations" : [ 
 ], 
  "observations" : [ 
  
    {
       "id" : 1,
       "locationName" : "DART 21415",
       "locationCountry" : "United States",
       "siteSegmentID" : 0,
       "lat" : "50.169",
       "lon" : "171.840",
   	   "observedMaxTime"  : "",
"observedPosAmplitude" : "0.0",
"observedPosAmplitudeUnits" : "feet",
 "predictedPosAmplitude" : "0.0",
"predictedPosAmplitudeUnits" : "feet",
"predictedArrivalTime" : "2025-07-30T00:25:00Z" }, 
  
    {
       "id" : 2,
       "locationName" : "Karab Cove",
       "locationCountry" : "United States",
       "siteSegmentID" : 0,
       "lat" : "52.380",
       "lon" : "173.600",
   	   "observedMaxTime"  : "",
"observedPosAmplitude" : "0.0",
"observedPosAmplitudeUnits" : "feet",
 "predictedPosAmplitude" : "0.56",
"predictedPosAmplitudeUnits" : "meters",
 "predictedArrivalTime" : "2025-07-30T00:35:00Z" }, 
  
    {
       "id" : 3,
       "locationName" : "Alaid Island",
       "locationCountry" : "United States",
       "siteSegmentID" : 0,
       "lat" : "52.750",
       "lon" : "173.880",
   	   "observedMaxTime"  : "",
"observedPosAmplitude" : "0.0",
"observedPosAmplitudeUnits" : "feet",
 "predictedPosAmplitude" : "0.67",
"predictedPosAmplitudeUnits" : "meters",
 "predictedArrivalTime" : "2025-07-30T00:35:00Z" }, 
  
    {
       "id" : 4,
       "locationName" : "Nizki Island",
       "locationCountry" : "United States",
       "siteSegmentID" : 0,
       "lat" : "52.730",
       "lon" : "174.010",
   	   "observedMaxTime"  : "",
"observedPosAmplitude" : "0.0",
"observedPosAmplitudeUnits" : "feet",
 "predictedPosAmplitude" : "0.59",
"predictedPosAmplitudeUnits" : "meters",
 "predictedArrivalTime" : "2025-07-30T00:40:00Z" }, 
  
    {
       "id" : 5,
       "locationName" : "Attu",
       "locationCountry" : "United States",
       "siteSegmentID" : 0,
       "lat" : "52.850",
       "lon" : "173.217",
   	   "observedMaxTime"  : "",
"observedPosAmplitude" : "0.0",
"observedPosAmplitudeUnits" : "feet",
 "predictedPosAmplitude" : "1.45",
"predictedPosAmplitudeUnits" : "meters",
 "predictedArrivalTime" : "2025-07-30T00:40:00Z" }, 
  
    {
       "id" : 6,
       "locationName" : "Shemya",
       "locationCountry" : "United States",
       "siteSegmentID" : 0,
       "lat" : "52.730",
       "lon" : "174.070",
   	   "observedMaxTime"  : "",
"observedPosAmplitude" : "0.0",
"observedPosAmplitudeUnits" : "feet",
 "predictedPosAmplitude" : "0.57",
"predictedPosAmplitudeUnits" : "meters",
 "predictedArrivalTime" : "2025-07-30T00:40:00Z" }, 
  
    {
       "id" : 7,
       "locationName" : "DART 21414",
       "locationCountry" : "United States",
       "siteSegmentID" : 0,
       "lat" : "48.948",
       "lon" : "178.266",
   	   "observedMaxTime"  : "",
"observedPosAmplitude" : "0.0",
"observedPosAmplitudeUnits" : "feet",
 "predictedPosAmplitude" : "0.0",
"predictedPosAmplitudeUnits" : "feet",
"predictedArrivalTime" : "2025-07-30T00:50:00Z" }, 
  
    {
       "id" : 8,
       "locationName" : "Amchitka Pass",
       "locationCountry" : "United States",
       "siteSegmentID" : 0,
       "lat" : "51.306",
       "lon" : "-179.797",
   	   "observedMaxTime"  : "",
"observedPosAmplitude" : "0.0",
"observedPosAmplitudeUnits" : "feet",
 "predictedPosAmplitude" : "0.0",
"predictedPosAmplitudeUnits" : "feet",
"predictedArrivalTime" : "2025-07-30T00:55:00Z" }, 
  
    {
       "id" : 9,
       "locationName" : "Amchitka",
       "locationCountry" : "United States",
       "siteSegmentID" : 0,
       "lat" : "51.367",
       "lon" : "179.302",
   	   "observedMaxTime"  : "2025-07-30T07:56:00Z",
"observedPosAmplitude" : "1.77",
"observedPosAmplitudeUnits" : "feet",
 "predictedPosAmplitude" : "0.0",
"predictedPosAmplitudeUnits" : "feet",
"predictedArrivalTime" : "2025-07-30T01:00:00Z" }, 
  
    {
       "id" : 10,
       "locationName" : "False Bay",
       "locationCountry" : "United States",
       "siteSegmentID" : 0,
       "lat" : "51.630",
       "lon" : "-176.770",
   	   "observedMaxTime"  : "",
"observedPosAmplitude" : "0.0",
"observedPosAmplitudeUnits" : "feet",
 "predictedPosAmplitude" : "0.20",
"predictedPosAmplitudeUnits" : "meters",
 "predictedArrivalTime" : "2025-07-30T01:20:00Z" }, 
  
    {
       "id" : 11,
       "locationName" : "DART 46413",
       "locationCountry" : "United States",
       "siteSegmentID" : 0,
       "lat" : "48.002",
       "lon" : "-174.204",
   	   "observedMaxTime"  : "",
"observedPosAmplitude" : "0.0",
"observedPosAmplitudeUnits" : "feet",
 "predictedPosAmplitude" : "0.0",
"predictedPosAmplitudeUnits" : "feet",
"predictedArrivalTime" : "2025-07-30T01:25:00Z" }, 
  
    {
       "id" : 12,
       "locationName" : "Agony Point",
       "locationCountry" : "United States",
       "siteSegmentID" : 0,
       "lat" : "51.790",
       "lon" : "-176.090",
   	   "observedMaxTime"  : "",
"observedPosAmplitude" : "0.0",
"observedPosAmplitudeUnits" : "feet",
 "predictedPosAmplitude" : "0.20",
"predictedPosAmplitudeUnits" : "meters",
 "predictedArrivalTime" : "2025-07-30T01:25:00Z" }, 
  
    {
       "id" : 13,
       "locationName" : "West Atka Island",
       "locationCountry" : "United States",
       "siteSegmentID" : 0,
       "lat" : "52.000",
       "lon" : "-175.170",
   	   "observedMaxTime"  : "",
"observedPosAmplitude" : "0.0",
"observedPosAmplitudeUnits" : "feet",
 "predictedPosAmplitude" : "0.26",
"predictedPosAmplitudeUnits" : "meters",
 "predictedArrivalTime" : "2025-07-30T01:30:00Z" }, 
  
    {
       "id" : 14,
       "locationName" : "Atka",
       "locationCountry" : "United States",
       "siteSegmentID" : 0,
       "lat" : "52.100",
       "lon" : "-174.400",
   	   "observedMaxTime"  : "2025-07-30T04:49:00Z",
"observedPosAmplitude" : "1.54",
"observedPosAmplitudeUnits" : "feet",
 "predictedPosAmplitude" : "0.0",
"predictedPosAmplitudeUnits" : "feet",
"predictedArrivalTime" : "2025-07-30T01:35:00Z" }, 
  
    {
       "id" : 15,
       "locationName" : "Adak",
       "locationCountry" : "United States",
       "siteSegmentID" : 0,
       "lat" : "51.863",
       "lon" : "-176.633",
   	   "observedMaxTime"  : "2025-07-30T06:24:00Z",
"observedPosAmplitude" : "1.74",
"observedPosAmplitudeUnits" : "feet",
 "predictedPosAmplitude" : "0.49",
"predictedPosAmplitudeUnits" : "meters",
 "predictedArrivalTime" : "2025-07-30T01:40:00Z" }, 
  
    {
       "id" : 16,
       "locationName" : "DART 46408",
       "locationCountry" : "United States",
       "siteSegmentID" : 0,
       "lat" : "49.665",
       "lon" : "-169.880",
   	   "observedMaxTime"  : "",
"observedPosAmplitude" : "0.0",
"observedPosAmplitudeUnits" : "feet",
 "predictedPosAmplitude" : "0.0",
"predictedPosAmplitudeUnits" : "feet",
"predictedArrivalTime" : "2025-07-30T01:40:00Z" }, 
  
    {
       "id" : 17,
       "locationName" : "Samalga Pass",
       "locationCountry" : "United States",
       "siteSegmentID" : 0,
       "lat" : "52.751",
       "lon" : "-169.465",
   	   "observedMaxTime"  : "",
"observedPosAmplitude" : "0.0",
"observedPosAmplitudeUnits" : "feet",
 "predictedPosAmplitude" : "0.0",
"predictedPosAmplitudeUnits" : "feet",
"predictedArrivalTime" : "2025-07-30T02:00:00Z" }, 
  
    {
       "id" : 18,
       "locationName" : "Samalga Island",
       "locationCountry" : "United States",
       "siteSegmentID" : 0,
       "lat" : "52.770",
       "lon" : "-169.220",
   	   "observedMaxTime"  : "",
"observedPosAmplitude" : "0.0",
"observedPosAmplitudeUnits" : "feet",
 "predictedPosAmplitude" : "0.20",
"predictedPosAmplitudeUnits" : "meters",
 "predictedArrivalTime" : "2025-07-30T02:00:00Z" }, 
  
    {
       "id" : 19,
       "locationName" : "DART 46402",
       "locationCountry" : "United States",
       "siteSegmentID" : 0,
       "lat" : "51.068",
       "lon" : "-164.023",
   	   "observedMaxTime"  : "",
"observedPosAmplitude" : "0.0",
"observedPosAmplitudeUnits" : "feet",
 "predictedPosAmplitude" : "0.0",
"predictedPosAmplitudeUnits" : "feet",
"predictedArrivalTime" : "2025-07-30T02:05:00Z" }, 
  
    {
       "id" : 20,
       "locationName" : "Nikolski",
       "locationCountry" : "United States",
       "siteSegmentID" : 0,
       "lat" : "52.950",
       "lon" : "-168.867",
   	   "observedMaxTime"  : "2025-07-30T05:27:00Z",
"observedPosAmplitude" : "1.21",
"observedPosAmplitudeUnits" : "feet",
 "predictedPosAmplitude" : "0.40",
"predictedPosAmplitudeUnits" : "meters",
 "predictedArrivalTime" : "2025-07-30T02:20:00Z" }, 
  
    {
       "id" : 21,
       "locationName" : "Sedanka Island",
       "locationCountry" : "United States",
       "siteSegmentID" : 0,
       "lat" : "53.820",
       "lon" : "-166.130",
   	   "observedMaxTime"  : "",
"observedPosAmplitude" : "0.0",
"observedPosAmplitudeUnits" : "feet",
 "predictedPosAmplitude" : "0.14",
"predictedPosAmplitudeUnits" : "meters",
 "predictedArrivalTime" : "2025-07-30T02:30:00Z" }, 
  
    {
       "id" : 22,
       "locationName" : "Avatanak Island",
       "locationCountry" : "United States",
       "siteSegmentID" : 0,
       "lat" : "54.070",
       "lon" : "-165.330",
   	   "observedMaxTime"  : "",
"observedPosAmplitude" : "0.0",
"observedPosAmplitudeUnits" : "feet",
 "predictedPosAmplitude" : "0.14",
"predictedPosAmplitudeUnits" : "meters",
 "predictedArrivalTime" : "2025-07-30T02:35:00Z" }, 
  
    {
       "id" : 23,
       "locationName" : "DART 46403",
       "locationCountry" : "United States",
       "siteSegmentID" : 0,
       "lat" : "52.646",
       "lon" : "-156.926",
   	   "observedMaxTime"  : "",
"observedPosAmplitude" : "0.0",
"observedPosAmplitudeUnits" : "feet",
 "predictedPosAmplitude" : "0.0",
"predictedPosAmplitudeUnits" : "feet",
"predictedArrivalTime" : "2025-07-30T02:40:00Z" }, 
  
    {
       "id" : 24,
       "locationName" : "Akutan",
       "locationCountry" : "United States",
       "siteSegmentID" : 0,
       "lat" : "54.133",
       "lon" : "-165.773",
   	   "observedMaxTime"  : "",
"observedPosAmplitude" : "0.0",
"observedPosAmplitudeUnits" : "feet",
 "predictedPosAmplitude" : "0.37",
"predictedPosAmplitudeUnits" : "meters",
 "predictedArrivalTime" : "2025-07-30T02:45:00Z" }, 
  
    {
       "id" : 25,
       "locationName" : "Unalaska",
       "locationCountry" : "United States",
       "siteSegmentID" : 0,
       "lat" : "53.877",
       "lon" : "-166.533",
   	   "observedMaxTime"  : "1970-01-01T00:00:00Z",
"observedPosAmplitude" : "0.75",
"observedPosAmplitudeUnits" : "feet",
 "predictedPosAmplitude" : "0.26",
"predictedPosAmplitudeUnits" : "meters",
 "predictedArrivalTime" : "2025-07-30T02:45:00Z" }, 
  
    {
       "id" : 26,
       "locationName" : "Saint Paul",
       "locationCountry" : "United States",
       "siteSegmentID" : 0,
       "lat" : "57.133",
       "lon" : "-170.300",
   	   "observedMaxTime"  : "1970-01-01T00:00:00Z",
"observedPosAmplitude" : "0.39",
"observedPosAmplitudeUnits" : "feet",
 "predictedPosAmplitude" : "0.23",
"predictedPosAmplitudeUnits" : "meters",
 "predictedArrivalTime" : "2025-07-30T02:55:00Z" }, 
  
    {
       "id" : 27,
       "locationName" : "Unimak Pass",
       "locationCountry" : "United States",
       "siteSegmentID" : 0,
       "lat" : "54.334",
       "lon" : "-164.921",
   	   "observedMaxTime"  : "",
"observedPosAmplitude" : "0.0",
"observedPosAmplitudeUnits" : "feet",
 "predictedPosAmplitude" : "0.0",
"predictedPosAmplitudeUnits" : "feet",
"predictedArrivalTime" : "2025-07-30T02:55:00Z" }, 
  
    {
       "id" : 28,
       "locationName" : "Sanak",
       "locationCountry" : "United States",
       "siteSegmentID" : 0,
       "lat" : "54.480",
       "lon" : "-162.820",
   	   "observedMaxTime"  : "",
"observedPosAmplitude" : "0.0",
"observedPosAmplitudeUnits" : "feet",
 "predictedPosAmplitude" : "0.09",
"predictedPosAmplitudeUnits" : "meters",
 "predictedArrivalTime" : "2025-07-30T03:00:00Z" }, 
  
    {
       "id" : 29,
       "locationName" : "False Pass",
       "locationCountry" : "United States",
       "siteSegmentID" : 0,
       "lat" : "54.850",
       "lon" : "-163.410",
   	   "observedMaxTime"  : "",
"observedPosAmplitude" : "0.0",
"observedPosAmplitudeUnits" : "feet",
 "predictedPosAmplitude" : "0.03",
"predictedPosAmplitudeUnits" : "meters",
 "predictedArrivalTime" : "2025-07-30T03:20:00Z" }, 
  
    {
       "id" : 30,
       "locationName" : "DART 46409",
       "locationCountry" : "United States",
       "siteSegmentID" : 0,
       "lat" : "55.301",
       "lon" : "-148.499",
   	   "observedMaxTime"  : "",
"observedPosAmplitude" : "0.0",
"observedPosAmplitudeUnits" : "feet",
 "predictedPosAmplitude" : "0.0",
"predictedPosAmplitudeUnits" : "feet",
"predictedArrivalTime" : "2025-07-30T03:20:00Z" }, 
  
    {
       "id" : 31,
       "locationName" : "Sand Point",
       "locationCountry" : "United States",
       "siteSegmentID" : 0,
       "lat" : "55.333",
       "lon" : "-160.503",
   	   "observedMaxTime"  : "1970-01-01T00:00:00Z",
"observedPosAmplitude" : "0.33",
"observedPosAmplitudeUnits" : "feet",
 "predictedPosAmplitude" : "0.09",
"predictedPosAmplitudeUnits" : "meters",
 "predictedArrivalTime" : "2025-07-30T03:25:00Z" }, 
  
    {
       "id" : 32,
       "locationName" : "Belkofski",
       "locationCountry" : "United States",
       "siteSegmentID" : 0,
       "lat" : "55.080",
       "lon" : "-162.030",
   	   "observedMaxTime"  : "",
"observedPosAmplitude" : "0.0",
"observedPosAmplitudeUnits" : "feet",
 "predictedPosAmplitude" : "0.09",
"predictedPosAmplitudeUnits" : "meters",
 "predictedArrivalTime" : "2025-07-30T03:25:00Z" }, 
  
    {
       "id" : 33,
       "locationName" : "King Cove",
       "locationCountry" : "United States",
       "siteSegmentID" : 0,
       "lat" : "55.060",
       "lon" : "-162.324",
   	   "observedMaxTime"  : "1970-01-01T00:00:00Z",
"observedPosAmplitude" : "0.03",
"observedPosAmplitudeUnits" : "feet",
 "predictedPosAmplitude" : "0.10",
"predictedPosAmplitudeUnits" : "meters",
 "predictedArrivalTime" : "2025-07-30T03:25:00Z" }, 
  
    {
       "id" : 34,
       "locationName" : "DART 46410",
       "locationCountry" : "United States",
       "siteSegmentID" : 0,
       "lat" : "57.640",
       "lon" : "-143.814",
   	   "observedMaxTime"  : "",
"observedPosAmplitude" : "0.0",
"observedPosAmplitudeUnits" : "feet",
 "predictedPosAmplitude" : "0.0",
"predictedPosAmplitudeUnits" : "feet",
"predictedArrivalTime" : "2025-07-30T03:50:00Z" }, 
  
    {
       "id" : 35,
       "locationName" : "Perryville",
       "locationCountry" : "United States",
       "siteSegmentID" : 0,
       "lat" : "55.900",
       "lon" : "-159.150",
   	   "observedMaxTime"  : "",
"observedPosAmplitude" : "0.0",
"observedPosAmplitudeUnits" : "feet",
 "predictedPosAmplitude" : "0.12",
"predictedPosAmplitudeUnits" : "meters",
 "predictedArrivalTime" : "2025-07-30T03:50:00Z" }, 
  
    {
       "id" : 36,
       "locationName" : "Ivanof Bay",
       "locationCountry" : "United States",
       "siteSegmentID" : 0,
       "lat" : "55.900",
       "lon" : "-159.480",
   	   "observedMaxTime"  : "",
"observedPosAmplitude" : "0.0",
"observedPosAmplitudeUnits" : "feet",
 "predictedPosAmplitude" : "0.05",
"predictedPosAmplitudeUnits" : "meters",
 "predictedArrivalTime" : "2025-07-30T03:55:00Z" }, 
  
    {
       "id" : 37,
       "locationName" : "Gull Point",
       "locationCountry" : "United States",
       "siteSegmentID" : 0,
       "lat" : "57.370",
       "lon" : "-152.600",
   	   "observedMaxTime"  : "",
"observedPosAmplitude" : "0.0",
"observedPosAmplitudeUnits" : "feet",
 "predictedPosAmplitude" : "0.05",
"predictedPosAmplitudeUnits" : "meters",
 "predictedArrivalTime" : "2025-07-30T03:55:00Z" }, 
  
    {
       "id" : 38,
       "locationName" : "Cold Bay",
       "locationCountry" : "United States",
       "siteSegmentID" : 0,
       "lat" : "55.217",
       "lon" : "-162.717",
   	   "observedMaxTime"  : "",
"observedPosAmplitude" : "0.0",
"observedPosAmplitudeUnits" : "feet",
 "predictedPosAmplitude" : "0.10",
"predictedPosAmplitudeUnits" : "meters",
 "predictedArrivalTime" : "2025-07-30T04:00:00Z" }, 
  
    {
       "id" : 39,
       "locationName" : "Old Harbor",
       "locationCountry" : "United States",
       "siteSegmentID" : 0,
       "lat" : "57.200",
       "lon" : "-153.310",
   	   "observedMaxTime"  : "",
"observedPosAmplitude" : "0.0",
"observedPosAmplitudeUnits" : "feet",
 "predictedPosAmplitude" : "0.0",
"predictedPosAmplitudeUnits" : "feet",
"predictedArrivalTime" : "2025-07-30T04:20:00Z" }, 
  
    {
       "id" : 40,
       "locationName" : "Cape Suckling",
       "locationCountry" : "United States",
       "siteSegmentID" : 0,
       "lat" : "59.981",
       "lon" : "-143.883",
   	   "observedMaxTime"  : "",
"observedPosAmplitude" : "0.0",
"observedPosAmplitudeUnits" : "feet",
 "predictedPosAmplitude" : "0.0",
"predictedPosAmplitudeUnits" : "feet",
"predictedArrivalTime" : "2025-07-30T04:20:00Z" }, 
  
    {
       "id" : 41,
       "locationName" : "Chignik Bay",
       "locationCountry" : "United States",
       "siteSegmentID" : 0,
       "lat" : "56.380",
       "lon" : "-158.243",
   	   "observedMaxTime"  : "",
"observedPosAmplitude" : "0.0",
"observedPosAmplitudeUnits" : "feet",
 "predictedPosAmplitude" : "0.0",
"predictedPosAmplitudeUnits" : "feet",
"predictedArrivalTime" : "2025-07-30T04:20:00Z" }, 
  
    {
       "id" : 42,
       "locationName" : "Kodiak",
       "locationCountry" : "United States",
       "siteSegmentID" : 0,
       "lat" : "57.731",
       "lon" : "-152.512",
   	   "observedMaxTime"  : "",
"observedPosAmplitude" : "0.0",
"observedPosAmplitudeUnits" : "feet",
 "predictedPosAmplitude" : "0.15",
"predictedPosAmplitudeUnits" : "meters",
 "predictedArrivalTime" : "2025-07-30T04:20:00Z" }, 
  
    {
       "id" : 43,
       "locationName" : "Selezen Point",
       "locationCountry" : "United States",
       "siteSegmentID" : 0,
       "lat" : "58.120",
       "lon" : "-152.400",
   	   "observedMaxTime"  : "",
"observedPosAmplitude" : "0.0",
"observedPosAmplitudeUnits" : "feet",
 "predictedPosAmplitude" : "0.05",
"predictedPosAmplitudeUnits" : "meters",
 "predictedArrivalTime" : "2025-07-30T04:25:00Z" }, 
  
    {
       "id" : 44,
       "locationName" : "Ouzinkie",
       "locationCountry" : "United States",
       "siteSegmentID" : 0,
       "lat" : "57.920",
       "lon" : "-152.530",
   	   "observedMaxTime"  : "",
"observedPosAmplitude" : "0.0",
"observedPosAmplitudeUnits" : "feet",
 "predictedPosAmplitude" : "0.05",
"predictedPosAmplitudeUnits" : "meters",
 "predictedArrivalTime" : "2025-07-30T04:25:00Z" }, 
  
    {
       "id" : 45,
       "locationName" : "Montague Island",
       "locationCountry" : "United States",
       "siteSegmentID" : 0,
       "lat" : "60.070",
       "lon" : "-147.320",
   	   "observedMaxTime"  : "",
"observedPosAmplitude" : "0.0",
"observedPosAmplitudeUnits" : "feet",
 "predictedPosAmplitude" : "0.03",
"predictedPosAmplitudeUnits" : "meters",
 "predictedArrivalTime" : "2025-07-30T04:25:00Z" }, 
  
    {
       "id" : 46,
       "locationName" : "Hinchinbrook Entrance",
       "locationCountry" : "United States",
       "siteSegmentID" : 0,
       "lat" : "60.269",
       "lon" : "-146.798",
   	   "observedMaxTime"  : "",
"observedPosAmplitude" : "0.0",
"observedPosAmplitudeUnits" : "feet",
 "predictedPosAmplitude" : "0.0",
"predictedPosAmplitudeUnits" : "feet",
"predictedArrivalTime" : "2025-07-30T04:30:00Z" }, 
  
    {
       "id" : 47,
       "locationName" : "Port Lions",
       "locationCountry" : "United States",
       "siteSegmentID" : 0,
       "lat" : "57.880",
       "lon" : "-152.850",
   	   "observedMaxTime"  : "",
"observedPosAmplitude" : "0.0",
"observedPosAmplitudeUnits" : "feet",
 "predictedPosAmplitude" : "0.07",
"predictedPosAmplitudeUnits" : "meters",
 "predictedArrivalTime" : "2025-07-30T04:35:00Z" }, 
  
    {
       "id" : 48,
       "locationName" : "Cape Hinchinbrook",
       "locationCountry" : "United States",
       "siteSegmentID" : 0,
       "lat" : "60.230",
       "lon" : "-146.630",
   	   "observedMaxTime"  : "",
"observedPosAmplitude" : "0.0",
"observedPosAmplitudeUnits" : "feet",
 "predictedPosAmplitude" : "0.03",
"predictedPosAmplitudeUnits" : "meters",
 "predictedArrivalTime" : "2025-07-30T04:35:00Z" }, 
  
    {
       "id" : 49,
       "locationName" : "Cape Bingham",
       "locationCountry" : "United States",
       "siteSegmentID" : 0,
       "lat" : "58.100",
       "lon" : "-136.530",
   	   "observedMaxTime"  : "",
"observedPosAmplitude" : "0.0",
"observedPosAmplitudeUnits" : "feet",
 "predictedPosAmplitude" : "0.04",
"predictedPosAmplitudeUnits" : "meters",
 "predictedArrivalTime" : "2025-07-30T04:40:00Z" }, 
  
    {
       "id" : 50,
       "locationName" : "Kruzof Island",
       "locationCountry" : "United States",
       "siteSegmentID" : 0,
       "lat" : "57.070",
       "lon" : "-135.850",
   	   "observedMaxTime"  : "",
"observedPosAmplitude" : "0.0",
"observedPosAmplitudeUnits" : "feet",
 "predictedPosAmplitude" : "0.11",
"predictedPosAmplitudeUnits" : "meters",
 "predictedArrivalTime" : "2025-07-30T04:40:00Z" }, 
  
    {
       "id" : 51,
       "locationName" : "Alitak Bay",
       "locationCountry" : "United States",
       "siteSegmentID" : 0,
       "lat" : "56.883",
       "lon" : "-154.117",
   	   "observedMaxTime"  : "",
"observedPosAmplitude" : "0.0",
"observedPosAmplitudeUnits" : "feet",
 "predictedPosAmplitude" : "0.0",
"predictedPosAmplitudeUnits" : "feet",
"predictedArrivalTime" : "2025-07-30T04:45:00Z" }, 
  
    {
       "id" : 52,
       "locationName" : "Icy Bay",
       "locationCountry" : "United States",
       "siteSegmentID" : 0,
       "lat" : "59.980",
       "lon" : "-141.520",
   	   "observedMaxTime"  : "",
"observedPosAmplitude" : "0.0",
"observedPosAmplitudeUnits" : "feet",
 "predictedPosAmplitude" : "0.13",
"predictedPosAmplitudeUnits" : "meters",
 "predictedArrivalTime" : "2025-07-30T04:45:00Z" }, 
  
    {
       "id" : 53,
       "locationName" : "Seward",
       "locationCountry" : "United States",
       "siteSegmentID" : 0,
       "lat" : "60.100",
       "lon" : "-149.433",
   	   "observedMaxTime"  : "",
"observedPosAmplitude" : "0.0",
"observedPosAmplitudeUnits" : "feet",
 "predictedPosAmplitude" : "0.06",
"predictedPosAmplitudeUnits" : "meters",
 "predictedArrivalTime" : "2025-07-30T04:45:00Z" }, 
  
    {
       "id" : 54,
       "locationName" : "Elfin Cove",
       "locationCountry" : "United States",
       "siteSegmentID" : 0,
       "lat" : "58.200",
       "lon" : "-136.350",
   	   "observedMaxTime"  : "",
"observedPosAmplitude" : "0.0",
"observedPosAmplitudeUnits" : "feet",
 "predictedPosAmplitude" : "0.05",
"predictedPosAmplitudeUnits" : "meters",
 "predictedArrivalTime" : "2025-07-30T04:45:00Z" }, 
  
    {
       "id" : 55,
       "locationName" : "Biorka Island",
       "locationCountry" : "United States",
       "siteSegmentID" : 0,
       "lat" : "56.850",
       "lon" : "-135.570",
   	   "observedMaxTime"  : "",
"observedPosAmplitude" : "0.0",
"observedPosAmplitudeUnits" : "feet",
 "predictedPosAmplitude" : "0.10",
"predictedPosAmplitudeUnits" : "meters",
 "predictedArrivalTime" : "2025-07-30T04:45:00Z" }, 
  
    {
       "id" : 56,
       "locationName" : "Situk River Mouth",
       "locationCountry" : "United States",
       "siteSegmentID" : 0,
       "lat" : "59.430",
       "lon" : "-139.570",
   	   "observedMaxTime"  : "",
"observedPosAmplitude" : "0.0",
"observedPosAmplitudeUnits" : "feet",
 "predictedPosAmplitude" : "0.08",
"predictedPosAmplitudeUnits" : "meters",
 "predictedArrivalTime" : "2025-07-30T04:50:00Z" }, 
  
    {
       "id" : 57,
       "locationName" : "Povorotni Point",
       "locationCountry" : "United States",
       "siteSegmentID" : 0,
       "lat" : "56.950",
       "lon" : "-135.400",
   	   "observedMaxTime"  : "",
"observedPosAmplitude" : "0.0",
"observedPosAmplitudeUnits" : "feet",
 "predictedPosAmplitude" : "0.13",
"predictedPosAmplitudeUnits" : "meters",
 "predictedArrivalTime" : "2025-07-30T04:50:00Z" }, 
  
    {
       "id" : 58,
       "locationName" : "Kennedy Entrance",
       "locationCountry" : "United States",
       "siteSegmentID" : 0,
       "lat" : "59.008",
       "lon" : "-152.000",
   	   "observedMaxTime"  : "",
"observedPosAmplitude" : "0.0",
"observedPosAmplitudeUnits" : "feet",
 "predictedPosAmplitude" : "0.0",
"predictedPosAmplitudeUnits" : "feet",
"predictedArrivalTime" : "2025-07-30T04:50:00Z" }, 
  
    {
       "id" : 59,
       "locationName" : "Schooner Beach",
       "locationCountry" : "United States",
       "siteSegmentID" : 0,
       "lat" : "59.750",
       "lon" : "-140.100",
   	   "observedMaxTime"  : "",
"observedPosAmplitude" : "0.0",
"observedPosAmplitudeUnits" : "feet",
 "predictedPosAmplitude" : "0.11",
"predictedPosAmplitudeUnits" : "meters",
 "predictedArrivalTime" : "2025-07-30T04:50:00Z" }, 
  
    {
       "id" : 60,
       "locationName" : "Saint Matthew Island",
       "locationCountry" : "United States",
       "siteSegmentID" : 0,
       "lat" : "60.401",
       "lon" : "-172.700",
   	   "observedMaxTime"  : "",
"observedPosAmplitude" : "0.0",
"observedPosAmplitudeUnits" : "feet",
 "predictedPosAmplitude" : "0.0",
"predictedPosAmplitudeUnits" : "feet",
"predictedArrivalTime" : "2025-07-30T04:50:00Z" }, 
  
    {
       "id" : 61,
       "locationName" : "Port Alexander",
       "locationCountry" : "United States",
       "siteSegmentID" : 0,
       "lat" : "56.250",
       "lon" : "-134.650",
   	   "observedMaxTime"  : "",
"observedPosAmplitude" : "0.0",
"observedPosAmplitudeUnits" : "feet",
 "predictedPosAmplitude" : "0.0",
"predictedPosAmplitudeUnits" : "feet",
"predictedArrivalTime" : "2025-07-30T04:55:00Z" }, 
  
    {
       "id" : 62,
       "locationName" : "Yakutat",
       "locationCountry" : "United States",
       "siteSegmentID" : 0,
       "lat" : "59.547",
       "lon" : "-139.730",
   	   "observedMaxTime"  : "",
"observedPosAmplitude" : "0.0",
"observedPosAmplitudeUnits" : "feet",
 "predictedPosAmplitude" : "0.15",
"predictedPosAmplitudeUnits" : "meters",
 "predictedArrivalTime" : "2025-07-30T04:55:00Z" }, 
  
    {
       "id" : 63,
       "locationName" : "Sitka",
       "locationCountry" : "United States",
       "siteSegmentID" : 0,
       "lat" : "57.053",
       "lon" : "-135.347",
   	   "observedMaxTime"  : "",
"observedPosAmplitude" : "0.0",
"observedPosAmplitudeUnits" : "feet",
 "predictedPosAmplitude" : "0.12",
"predictedPosAmplitudeUnits" : "meters",
 "predictedArrivalTime" : "2025-07-30T04:55:00Z" }, 
  
    {
       "id" : 64,
       "locationName" : "Cape Fairweather",
       "locationCountry" : "United States",
       "siteSegmentID" : 0,
       "lat" : "58.805",
       "lon" : "-137.949",
   	   "observedMaxTime"  : "",
"observedPosAmplitude" : "0.0",
"observedPosAmplitudeUnits" : "feet",
 "predictedPosAmplitude" : "0.0",
"predictedPosAmplitudeUnits" : "feet",
"predictedArrivalTime" : "2025-07-30T04:55:00Z" }, 
  
    {
       "id" : 65,
       "locationName" : "Tatitlek",
       "locationCountry" : "United States",
       "siteSegmentID" : 0,
       "lat" : "60.870",
       "lon" : "-146.700",
   	   "observedMaxTime"  : "",
"observedPosAmplitude" : "0.0",
"observedPosAmplitudeUnits" : "feet",
 "predictedPosAmplitude" : "0.02",
"predictedPosAmplitudeUnits" : "meters",
 "predictedArrivalTime" : "2025-07-30T04:55:00Z" }, 
  
    {
       "id" : 66,
       "locationName" : "Salisbury Sound",
       "locationCountry" : "United States",
       "siteSegmentID" : 0,
       "lat" : "57.367",
       "lon" : "-135.791",
   	   "observedMaxTime"  : "",
"observedPosAmplitude" : "0.0",
"observedPosAmplitudeUnits" : "feet",
 "predictedPosAmplitude" : "0.0",
"predictedPosAmplitudeUnits" : "feet",
"predictedArrivalTime" : "2025-07-30T04:55:00Z" }, 
  
    {
       "id" : 67,
       "locationName" : "Krestof Island",
       "locationCountry" : "United States",
       "siteSegmentID" : 0,
       "lat" : "57.170",
       "lon" : "-135.480",
   	   "observedMaxTime"  : "",
"observedPosAmplitude" : "0.0",
"observedPosAmplitudeUnits" : "feet",
 "predictedPosAmplitude" : "0.11",
"predictedPosAmplitudeUnits" : "meters",
 "predictedArrivalTime" : "2025-07-30T05:00:00Z" }, 
  
    {
       "id" : 68,
       "locationName" : "The BC/Alaska Border",
       "locationCountry" : "United States",
       "siteSegmentID" : 0,
       "lat" : "54.428",
       "lon" : "-133.404",
   	   "observedMaxTime"  : "",
"observedPosAmplitude" : "0.0",
"observedPosAmplitudeUnits" : "feet",
 "predictedPosAmplitude" : "0.0",
"predictedPosAmplitudeUnits" : "feet",
"predictedArrivalTime" : "2025-07-30T05:00:00Z" }, 
  
    {
       "id" : 69,
       "locationName" : "Langara",
       "locationCountry" : "Canada",
       "siteSegmentID" : 0,
       "lat" : "54.267",
       "lon" : "-133.067",
   	   "observedMaxTime"  : "2025-07-30T23:44:00Z",
"observedPosAmplitude" : "0.85",
"observedPosAmplitudeUnits" : "feet",
 "predictedPosAmplitude" : "0.05",
"predictedPosAmplitudeUnits" : "meters",
 "predictedArrivalTime" : "2025-07-30T05:05:00Z" }, 
  
    {
       "id" : 70,
       "locationName" : "Valdez",
       "locationCountry" : "United States",
       "siteSegmentID" : 0,
       "lat" : "61.133",
       "lon" : "-146.317",
   	   "observedMaxTime"  : "",
"observedPosAmplitude" : "0.0",
"observedPosAmplitudeUnits" : "feet",
 "predictedPosAmplitude" : "0.02",
"predictedPosAmplitudeUnits" : "meters",
 "predictedArrivalTime" : "2025-07-30T05:05:00Z" }, 
  
    {
       "id" : 71,
       "locationName" : "Gustavus",
       "locationCountry" : "United States",
       "siteSegmentID" : 0,
       "lat" : "58.400",
       "lon" : "-135.920",
   	   "observedMaxTime"  : "",
"observedPosAmplitude" : "0.0",
"observedPosAmplitudeUnits" : "feet",
 "predictedPosAmplitude" : "0.04",
"predictedPosAmplitudeUnits" : "meters",
 "predictedArrivalTime" : "2025-07-30T05:05:00Z" }, 
  
    {
       "id" : 72,
       "locationName" : "White Point",
       "locationCountry" : "Canada",
       "siteSegmentID" : 0,
       "lat" : "54.000",
       "lon" : "-133.130",
   	   "observedMaxTime"  : "",
"observedPosAmplitude" : "0.0",
"observedPosAmplitudeUnits" : "feet",
 "predictedPosAmplitude" : "0.17",
"predictedPosAmplitudeUnits" : "meters",
 "predictedArrivalTime" : "2025-07-30T05:10:00Z" }, 
  
    {
       "id" : 73,
       "locationName" : "Whittier",
       "locationCountry" : "United States",
       "siteSegmentID" : 0,
       "lat" : "60.780",
       "lon" : "-148.680",
   	   "observedMaxTime"  : "",
"observedPosAmplitude" : "0.0",
"observedPosAmplitudeUnits" : "feet",
 "predictedPosAmplitude" : "0.01",
"predictedPosAmplitudeUnits" : "meters",
 "predictedArrivalTime" : "2025-07-30T05:10:00Z" }, 
  
    {
       "id" : 74,
       "locationName" : "English Bay",
       "locationCountry" : "United States",
       "siteSegmentID" : 0,
       "lat" : "59.350",
       "lon" : "-151.930",
   	   "observedMaxTime"  : "",
"observedPosAmplitude" : "0.0",
"observedPosAmplitudeUnits" : "feet",
 "predictedPosAmplitude" : "0.01",
"predictedPosAmplitudeUnits" : "meters",
 "predictedArrivalTime" : "2025-07-30T05:15:00Z" }, 
  
    {
       "id" : 75,
       "locationName" : "Cape Decision",
       "locationCountry" : "United States",
       "siteSegmentID" : 0,
       "lat" : "56.006",
       "lon" : "-134.140",
   	   "observedMaxTime"  : "",
"observedPosAmplitude" : "0.0",
"observedPosAmplitudeUnits" : "feet",
 "predictedPosAmplitude" : "0.0",
"predictedPosAmplitudeUnits" : "feet",
"predictedArrivalTime" : "2025-07-30T05:15:00Z" }, 
  
    {
       "id" : 76,
       "locationName" : "Cordova",
       "locationCountry" : "United States",
       "siteSegmentID" : 0,
       "lat" : "60.550",
       "lon" : "-145.767",
   	   "observedMaxTime"  : "",
"observedPosAmplitude" : "0.0",
"observedPosAmplitudeUnits" : "feet",
 "predictedPosAmplitude" : "0.04",
"predictedPosAmplitudeUnits" : "meters",
 "predictedArrivalTime" : "2025-07-30T05:15:00Z" }, 
  
    {
       "id" : 77,
       "locationName" : "Hoonah",
       "locationCountry" : "United States",
       "siteSegmentID" : 0,
       "lat" : "58.120",
       "lon" : "-135.470",
   	   "observedMaxTime"  : "",
"observedPosAmplitude" : "0.0",
"observedPosAmplitudeUnits" : "feet",
 "predictedPosAmplitude" : "0.04",
"predictedPosAmplitudeUnits" : "meters",
 "predictedArrivalTime" : "2025-07-30T05:25:00Z" }, 
  
    {
       "id" : 78,
       "locationName" : "Seldovia",
       "locationCountry" : "United States",
       "siteSegmentID" : 0,
       "lat" : "59.430",
       "lon" : "-151.720",
   	   "observedMaxTime"  : "",
"observedPosAmplitude" : "0.0",
"observedPosAmplitudeUnits" : "feet",
 "predictedPosAmplitude" : "0.03",
"predictedPosAmplitudeUnits" : "meters",
 "predictedArrivalTime" : "2025-07-30T05:30:00Z" }, 
  
    {
       "id" : 79,
       "locationName" : "DART 46419",
       "locationCountry" : "United States",
       "siteSegmentID" : 0,
       "lat" : "48.769",
       "lon" : "-129.627",
   	   "observedMaxTime"  : "",
"observedPosAmplitude" : "0.0",
"observedPosAmplitudeUnits" : "feet",
 "predictedPosAmplitude" : "0.0",
"predictedPosAmplitudeUnits" : "feet",
"predictedArrivalTime" : "2025-07-30T05:30:00Z" }, 
  
    {
       "id" : 80,
       "locationName" : "West Flank Endeavour",
       "locationCountry" : "Canada",
       "siteSegmentID" : 0,
       "lat" : "47.959",
       "lon" : "-129.125",
   	   "observedMaxTime"  : "",
"observedPosAmplitude" : "0.0",
"observedPosAmplitudeUnits" : "feet",
 "predictedPosAmplitude" : "0.0",
"predictedPosAmplitudeUnits" : "feet",
"predictedArrivalTime" : "2025-07-30T05:35:00Z" }, 
  
    {
       "id" : 81,
       "locationName" : "RCM South Endeavour",
       "locationCountry" : "Canada",
       "siteSegmentID" : 0,
       "lat" : "47.933",
       "lon" : "-129.099",
   	   "observedMaxTime"  : "",
"observedPosAmplitude" : "0.0",
"observedPosAmplitudeUnits" : "feet",
 "predictedPosAmplitude" : "0.0",
"predictedPosAmplitudeUnits" : "feet",
"predictedArrivalTime" : "2025-07-30T05:35:00Z" }, 
  
    {
       "id" : 82,
       "locationName" : "Endeavour South",
       "locationCountry" : "Canada",
       "siteSegmentID" : 0,
       "lat" : "47.949",
       "lon" : "-129.099",
   	   "observedMaxTime"  : "",
"observedPosAmplitude" : "0.0",
"observedPosAmplitudeUnits" : "feet",
 "predictedPosAmplitude" : "0.0",
"predictedPosAmplitudeUnits" : "feet",
"predictedArrivalTime" : "2025-07-30T05:35:00Z" }, 
  
    {
       "id" : 83,
       "locationName" : "Neptune8C",
       "locationCountry" : "Canada",
       "siteSegmentID" : 0,
       "lat" : "47.974",
       "lon" : "-129.082",
   	   "observedMaxTime"  : "",
"observedPosAmplitude" : "0.0",
"observedPosAmplitudeUnits" : "feet",
 "predictedPosAmplitude" : "0.0",
"predictedPosAmplitudeUnits" : "feet",
"predictedArrivalTime" : "2025-07-30T05:35:00Z" }, 
  
    {
       "id" : 84,
       "locationName" : "Mothra Endeavour",
       "locationCountry" : "Canada",
       "siteSegmentID" : 0,
       "lat" : "47.924",
       "lon" : "-129.108",
   	   "observedMaxTime"  : "2025-07-30T00:31:00Z",
"observedPosAmplitude" : "0.26",
"observedPosAmplitudeUnits" : "feet",
 "predictedPosAmplitude" : "0.0",
"predictedPosAmplitudeUnits" : "feet",
"predictedArrivalTime" : "2025-07-30T05:35:00Z" }, 
  
    {
       "id" : 85,
       "locationName" : "Main Endeavour Field",
       "locationCountry" : "Canada",
       "siteSegmentID" : 0,
       "lat" : "47.949",
       "lon" : "-129.099",
   	   "observedMaxTime"  : "2025-07-30T00:39:00Z",
"observedPosAmplitude" : "0.30",
"observedPosAmplitudeUnits" : "feet",
 "predictedPosAmplitude" : "0.0",
"predictedPosAmplitudeUnits" : "feet",
"predictedArrivalTime" : "2025-07-30T05:35:00Z" }, 
  
    {
       "id" : 86,
       "locationName" : "Homer",
       "locationCountry" : "United States",
       "siteSegmentID" : 0,
       "lat" : "59.600",
       "lon" : "-151.433",
   	   "observedMaxTime"  : "",
"observedPosAmplitude" : "0.0",
"observedPosAmplitudeUnits" : "feet",
 "predictedPosAmplitude" : "0.02",
"predictedPosAmplitudeUnits" : "meters",
 "predictedArrivalTime" : "2025-07-30T05:40:00Z" }, 
  
    {
       "id" : 87,
       "locationName" : "Cascadia Basin W",
       "locationCountry" : "Canada",
       "siteSegmentID" : 0,
       "lat" : "47.764",
       "lon" : "-128.058",
   	   "observedMaxTime"  : "",
"observedPosAmplitude" : "0.0",
"observedPosAmplitudeUnits" : "feet",
 "predictedPosAmplitude" : "0.0",
"predictedPosAmplitudeUnits" : "feet",
"predictedArrivalTime" : "2025-07-30T05:45:00Z" }, 
  
    {
       "id" : 88,
       "locationName" : "DART 46404",
       "locationCountry" : "United States",
       "siteSegmentID" : 0,
       "lat" : "45.853",
       "lon" : "-128.780",
   	   "observedMaxTime"  : "",
"observedPosAmplitude" : "0.0",
"observedPosAmplitudeUnits" : "feet",
 "predictedPosAmplitude" : "0.0",
"predictedPosAmplitudeUnits" : "feet",
"predictedArrivalTime" : "2025-07-30T05:45:00Z" }, 
  
    {
       "id" : 89,
       "locationName" : "Cascadia Basin ODP 1026",
       "locationCountry" : "Canada",
       "siteSegmentID" : 0,
       "lat" : "47.763",
       "lon" : "-127.758",
   	   "observedMaxTime"  : "",
"observedPosAmplitude" : "0.0",
"observedPosAmplitudeUnits" : "feet",
 "predictedPosAmplitude" : "0.0",
"predictedPosAmplitudeUnits" : "feet",
"predictedArrivalTime" : "2025-07-30T05:45:00Z" }, 
  
    {
       "id" : 90,
       "locationName" : "Cascadia Basin NE",
       "locationCountry" : "Canada",
       "siteSegmentID" : 0,
       "lat" : "47.906",
       "lon" : "-127.621",
   	   "observedMaxTime"  : "",
"observedPosAmplitude" : "0.0",
"observedPosAmplitudeUnits" : "feet",
 "predictedPosAmplitude" : "0.0",
"predictedPosAmplitudeUnits" : "feet",
"predictedArrivalTime" : "2025-07-30T05:45:00Z" }, 
  
    {
       "id" : 91,
       "locationName" : "Neptune ODP1027",
       "locationCountry" : "Canada",
       "siteSegmentID" : 0,
       "lat" : "47.763",
       "lon" : "-127.759",
   	   "observedMaxTime"  : "",
"observedPosAmplitude" : "0.0",
"observedPosAmplitudeUnits" : "feet",
 "predictedPosAmplitude" : "0.0",
"predictedPosAmplitudeUnits" : "feet",
"predictedArrivalTime" : "2025-07-30T05:45:00Z" }, 
  
    {
       "id" : 92,
       "locationName" : "Auke Bay",
       "locationCountry" : "United States",
       "siteSegmentID" : 0,
       "lat" : "58.380",
       "lon" : "-134.650",
   	   "observedMaxTime"  : "",
"observedPosAmplitude" : "0.0",
"observedPosAmplitudeUnits" : "feet",
 "predictedPosAmplitude" : "0.05",
"predictedPosAmplitudeUnits" : "meters",
 "predictedArrivalTime" : "2025-07-30T05:45:00Z" }, 
  
    {
       "id" : 93,
       "locationName" : "Clayquout Slope Bullseye",
       "locationCountry" : "Canada",
       "siteSegmentID" : 0,
       "lat" : "48.671",
       "lon" : "-126.848",
   	   "observedMaxTime"  : "",
"observedPosAmplitude" : "0.0",
"observedPosAmplitudeUnits" : "feet",
 "predictedPosAmplitude" : "0.0",
"predictedPosAmplitudeUnits" : "feet",
"predictedArrivalTime" : "2025-07-30T05:50:00Z" }, 
  
    {
       "id" : 94,
       "locationName" : "Halibut Cove",
       "locationCountry" : "United States",
       "siteSegmentID" : 0,
       "lat" : "59.600",
       "lon" : "-151.180",
   	   "observedMaxTime"  : "",
"observedPosAmplitude" : "0.0",
"observedPosAmplitudeUnits" : "feet",
 "predictedPosAmplitude" : "0.02",
"predictedPosAmplitudeUnits" : "meters",
 "predictedArrivalTime" : "2025-07-30T05:50:00Z" }, 
  
    {
       "id" : 95,
       "locationName" : "North Vancouver Island",
       "locationCountry" : "Canada",
       "siteSegmentID" : 0,
       "lat" : "50.767",
       "lon" : "-128.417",
   	   "observedMaxTime"  : "",
"observedPosAmplitude" : "0.0",
"observedPosAmplitudeUnits" : "feet",
 "predictedPosAmplitude" : "0.0",
"predictedPosAmplitudeUnits" : "feet",
"predictedArrivalTime" : "2025-07-30T05:50:00Z" }, 
  
    {
       "id" : 96,
       "locationName" : "Neptune88",
       "locationCountry" : "Canada",
       "siteSegmentID" : 0,
       "lat" : "48.671",
       "lon" : "-126.848",
   	   "observedMaxTime"  : "",
"observedPosAmplitude" : "0.0",
"observedPosAmplitudeUnits" : "feet",
 "predictedPosAmplitude" : "0.0",
"predictedPosAmplitudeUnits" : "feet",
"predictedArrivalTime" : "2025-07-30T05:50:00Z" }, 
  
    {
       "id" : 97,
       "locationName" : "Cascadia Basin SE",
       "locationCountry" : "Canada",
       "siteSegmentID" : 0,
       "lat" : "47.562",
       "lon" : "-127.608",
   	   "observedMaxTime"  : "",
"observedPosAmplitude" : "0.0",
"observedPosAmplitudeUnits" : "feet",
 "predictedPosAmplitude" : "0.0",
"predictedPosAmplitudeUnits" : "feet",
"predictedArrivalTime" : "2025-07-30T05:50:00Z" }, 
  
    {
       "id" : 98,
       "locationName" : "Winter Harbour",
       "locationCountry" : "Canada",
       "siteSegmentID" : 0,
       "lat" : "50.770",
       "lon" : "-128.420",
   	   "observedMaxTime"  : "2025-07-30T21:03:00Z",
"observedPosAmplitude" : "0.82",
"observedPosAmplitudeUnits" : "feet",
 "predictedPosAmplitude" : "0.12",
"predictedPosAmplitudeUnits" : "meters",
 "predictedArrivalTime" : "2025-07-30T05:50:00Z" }, 
  
    {
       "id" : 99,
       "locationName" : "DART 46407",
       "locationCountry" : "United States",
       "siteSegmentID" : 0,
       "lat" : "42.666",
       "lon" : "-128.811",
   	   "observedMaxTime"  : "",
"observedPosAmplitude" : "0.0",
"observedPosAmplitudeUnits" : "feet",
 "predictedPosAmplitude" : "0.0",
"predictedPosAmplitudeUnits" : "feet",
"predictedArrivalTime" : "2025-07-30T05:55:00Z" }, 
  
    {
       "id" : 100,
       "locationName" : "Craig",
       "locationCountry" : "United States",
       "siteSegmentID" : 0,
       "lat" : "55.477",
       "lon" : "-133.148",
   	   "observedMaxTime"  : "",
"observedPosAmplitude" : "0.0",
"observedPosAmplitudeUnits" : "feet",
 "predictedPosAmplitude" : "0.0",
"predictedPosAmplitudeUnits" : "feet",
"predictedArrivalTime" : "2025-07-30T05:55:00Z" }, 
  
    {
       "id" : 101,
       "locationName" : "Neptune Barkley Canyon",
       "locationCountry" : "Canada",
       "siteSegmentID" : 0,
       "lat" : "48.427",
       "lon" : "-126.175",
   	   "observedMaxTime"  : "",
"observedPosAmplitude" : "0.0",
"observedPosAmplitudeUnits" : "feet",
 "predictedPosAmplitude" : "0.0",
"predictedPosAmplitudeUnits" : "feet",
"predictedArrivalTime" : "2025-07-30T06:00:00Z" }, 
  
    {
       "id" : 102,
       "locationName" : "Ketchikan",
       "locationCountry" : "United States",
       "siteSegmentID" : 0,
       "lat" : "55.333",
       "lon" : "-131.667",
   	   "observedMaxTime"  : "",
"observedPosAmplitude" : "0.0",
"observedPosAmplitudeUnits" : "feet",
 "predictedPosAmplitude" : "0.0",
"predictedPosAmplitudeUnits" : "feet",
"predictedArrivalTime" : "2025-07-30T06:00:00Z" }, 
  
    {
       "id" : 103,
       "locationName" : "Juneau",
       "locationCountry" : "United States",
       "siteSegmentID" : 0,
       "lat" : "58.298",
       "lon" : "-134.400",
   	   "observedMaxTime"  : "",
"observedPosAmplitude" : "0.0",
"observedPosAmplitudeUnits" : "feet",
 "predictedPosAmplitude" : "0.0",
"predictedPosAmplitudeUnits" : "feet",
"predictedArrivalTime" : "2025-07-30T06:05:00Z" }, 
  
    {
       "id" : 104,
       "locationName" : "Queen Charlotte",
       "locationCountry" : "Canada",
       "siteSegmentID" : 0,
       "lat" : "53.250",
       "lon" : "-132.070",
   	   "observedMaxTime"  : "",
"observedPosAmplitude" : "0.0",
"observedPosAmplitudeUnits" : "feet",
 "predictedPosAmplitude" : "0.0",
"predictedPosAmplitudeUnits" : "feet",
"predictedArrivalTime" : "2025-07-30T06:15:00Z" }, 
  
    {
       "id" : 105,
       "locationName" : "Matlahaw Point",
       "locationCountry" : "Canada",
       "siteSegmentID" : 0,
       "lat" : "49.370",
       "lon" : "-126.470",
   	   "observedMaxTime"  : "",
"observedPosAmplitude" : "0.0",
"observedPosAmplitudeUnits" : "feet",
 "predictedPosAmplitude" : "0.13",
"predictedPosAmplitudeUnits" : "meters",
 "predictedArrivalTime" : "2025-07-30T06:15:00Z" }, 
  
    {
       "id" : 106,
       "locationName" : "Dart46451PC Oregon Coast",
       "locationCountry" : "United States",
       "siteSegmentID" : 0,
       "lat" : "44.814",
       "lon" : "-125.702",
   	   "observedMaxTime"  : "",
"observedPosAmplitude" : "0.0",
"observedPosAmplitudeUnits" : "feet",
 "predictedPosAmplitude" : "0.0",
"predictedPosAmplitudeUnits" : "feet",
"predictedArrivalTime" : "2025-07-30T06:15:00Z" }, 
  
    {
       "id" : 107,
       "locationName" : "DART 46411",
       "locationCountry" : "United States",
       "siteSegmentID" : 0,
       "lat" : "39.349",
       "lon" : "-127.015",
   	   "observedMaxTime"  : "",
"observedPosAmplitude" : "0.0",
"observedPosAmplitudeUnits" : "feet",
 "predictedPosAmplitude" : "0.0",
"predictedPosAmplitudeUnits" : "feet",
"predictedArrivalTime" : "2025-07-30T06:20:00Z" }, 
  
    {
       "id" : 108,
       "locationName" : "Gambell",
       "locationCountry" : "United States",
       "siteSegmentID" : 0,
       "lat" : "63.780",
       "lon" : "-171.700",
   	   "observedMaxTime"  : "",
"observedPosAmplitude" : "0.0",
"observedPosAmplitudeUnits" : "feet",
 "predictedPosAmplitude" : "0.0",
"predictedPosAmplitudeUnits" : "feet",
"predictedArrivalTime" : "2025-07-30T06:20:00Z" }, 
  
    {
       "id" : 109,
       "locationName" : "Tofino",
       "locationCountry" : "Canada",
       "siteSegmentID" : 0,
       "lat" : "49.150",
       "lon" : "-125.917",
   	   "observedMaxTime"  : "2025-07-30T11:33:00Z",
"observedPosAmplitude" : "0.75",
"observedPosAmplitudeUnits" : "feet",
 "predictedPosAmplitude" : "0.18",
"predictedPosAmplitudeUnits" : "meters",
 "predictedArrivalTime" : "2025-07-30T06:30:00Z" }, 
  
    {
       "id" : 110,
       "locationName" : "Neptune05",
       "locationCountry" : "Canada",
       "siteSegmentID" : 0,
       "lat" : "48.814",
       "lon" : "-125.281",
   	   "observedMaxTime"  : "",
"observedPosAmplitude" : "0.0",
"observedPosAmplitudeUnits" : "feet",
 "predictedPosAmplitude" : "0.0",
"predictedPosAmplitudeUnits" : "feet",
"predictedArrivalTime" : "2025-07-30T06:35:00Z" }, 
  
    {
       "id" : 111,
       "locationName" : "Port Orford",
       "locationCountry" : "United States",
       "siteSegmentID" : 0,
       "lat" : "42.730",
       "lon" : "-124.500",
   	   "observedMaxTime"  : "2025-07-30T10:14:00Z",
"observedPosAmplitude" : "2.16",
"observedPosAmplitudeUnits" : "feet",
 "predictedPosAmplitude" : "0.41",
"predictedPosAmplitudeUnits" : "meters",
 "predictedArrivalTime" : "2025-07-30T06:35:00Z" }, 
  
    {
       "id" : 112,
       "locationName" : "La Push",
       "locationCountry" : "United States",
       "siteSegmentID" : 0,
       "lat" : "47.913",
       "lon" : "-124.637",
   	   "observedMaxTime"  : "2025-07-30T13:13:00Z",
"observedPosAmplitude" : "1.41",
"observedPosAmplitudeUnits" : "feet",
 "predictedPosAmplitude" : "0.0",
"predictedPosAmplitudeUnits" : "feet",
"predictedArrivalTime" : "2025-07-30T06:35:00Z" }, 
  
    {
       "id" : 113,
       "locationName" : "The Wash./BC Border",
       "locationCountry" : "United States",
       "siteSegmentID" : 0,
       "lat" : "48.380",
       "lon" : "-124.717",
   	   "observedMaxTime"  : "",
"observedPosAmplitude" : "0.0",
"observedPosAmplitudeUnits" : "feet",
 "predictedPosAmplitude" : "0.0",
"predictedPosAmplitudeUnits" : "feet",
"predictedArrivalTime" : "2025-07-30T06:35:00Z" }, 
  
    {
       "id" : 114,
       "locationName" : "Prince Rupert",
       "locationCountry" : "Canada",
       "siteSegmentID" : 0,
       "lat" : "54.320",
       "lon" : "-130.320",
   	   "observedMaxTime"  : "",
"observedPosAmplitude" : "0.0",
"observedPosAmplitudeUnits" : "feet",
 "predictedPosAmplitude" : "0.0",
"predictedPosAmplitudeUnits" : "feet",
"predictedArrivalTime" : "2025-07-30T06:35:00Z" }, 
  
    {
       "id" : 115,
       "locationName" : "Prince Rupert",
       "locationCountry" : "Canada",
       "siteSegmentID" : 0,
       "lat" : "54.317",
       "lon" : "-130.317",
   	   "observedMaxTime"  : "",
"observedPosAmplitude" : "0.0",
"observedPosAmplitudeUnits" : "feet",
 "predictedPosAmplitude" : "0.0",
"predictedPosAmplitudeUnits" : "feet",
"predictedArrivalTime" : "2025-07-30T06:35:00Z" }, 
  
    {
       "id" : 116,
       "locationName" : "Folger Deep",
       "locationCountry" : "Canada",
       "siteSegmentID" : 0,
       "lat" : "48.814",
       "lon" : "-125.281",
   	   "observedMaxTime"  : "",
"observedPosAmplitude" : "0.0",
"observedPosAmplitudeUnits" : "feet",
 "predictedPosAmplitude" : "0.0",
"predictedPosAmplitudeUnits" : "feet",
"predictedArrivalTime" : "2025-07-30T06:35:00Z" }, 
  
    {
       "id" : 117,
       "locationName" : "Cascade Head",
       "locationCountry" : "United States",
       "siteSegmentID" : 0,
       "lat" : "45.047",
       "lon" : "-124.011",
   	   "observedMaxTime"  : "",
"observedPosAmplitude" : "0.0",
"observedPosAmplitudeUnits" : "feet",
 "predictedPosAmplitude" : "0.0",
"predictedPosAmplitudeUnits" : "feet",
"predictedArrivalTime" : "2025-07-30T06:40:00Z" }, 
  
    {
       "id" : 118,
       "locationName" : "The Oregon/Wash. Border",
       "locationCountry" : "United States",
       "siteSegmentID" : 0,
       "lat" : "46.254",
       "lon" : "-124.076",
   	   "observedMaxTime"  : "",
"observedPosAmplitude" : "0.0",
"observedPosAmplitudeUnits" : "feet",
 "predictedPosAmplitude" : "0.0",
"predictedPosAmplitudeUnits" : "feet",
"predictedArrivalTime" : "2025-07-30T06:40:00Z" }, 
  
    {
       "id" : 119,
       "locationName" : "Neah Bay",
       "locationCountry" : "United States",
       "siteSegmentID" : 0,
       "lat" : "48.367",
       "lon" : "-124.617",
   	   "observedMaxTime"  : "2025-07-31T05:10:00Z",
"observedPosAmplitude" : "0.36",
"observedPosAmplitudeUnits" : "feet",
 "predictedPosAmplitude" : "0.11",
"predictedPosAmplitudeUnits" : "meters",
 "predictedArrivalTime" : "2025-07-30T06:40:00Z" }, 
  
    {
       "id" : 120,
       "locationName" : "Waatch",
       "locationCountry" : "United States",
       "siteSegmentID" : 0,
       "lat" : "48.337",
       "lon" : "-124.676",
   	   "observedMaxTime"  : "",
"observedPosAmplitude" : "0.0",
"observedPosAmplitudeUnits" : "feet",
 "predictedPosAmplitude" : "0.0",
"predictedPosAmplitudeUnits" : "feet",
"predictedArrivalTime" : "2025-07-30T05:20:00Z" }, 
  
    {
       "id" : 121,
       "locationName" : "Taholah",
       "locationCountry" : "United States",
       "siteSegmentID" : 0,
       "lat" : "47.347",
       "lon" : "-124.305",
   	   "observedMaxTime"  : "",
"observedPosAmplitude" : "0.0",
"observedPosAmplitudeUnits" : "feet",
 "predictedPosAmplitude" : "0.0",
"predictedPosAmplitudeUnits" : "feet",
"predictedArrivalTime" : "2025-07-30T06:40:00Z" }, 
  
    {
       "id" : 122,
       "locationName" : "Neskowin",
       "locationCountry" : "United States",
       "siteSegmentID" : 0,
       "lat" : "45.120",
       "lon" : "-124.000",
   	   "observedMaxTime"  : "",
"observedPosAmplitude" : "0.0",
"observedPosAmplitudeUnits" : "feet",
 "predictedPosAmplitude" : "0.22",
"predictedPosAmplitudeUnits" : "meters",
 "predictedArrivalTime" : "2025-07-30T06:40:00Z" }, 
  
    {
       "id" : 123,
       "locationName" : "Coquille Point",
       "locationCountry" : "United States",
       "siteSegmentID" : 0,
       "lat" : "43.130",
       "lon" : "-124.430",
   	   "observedMaxTime"  : "",
"observedPosAmplitude" : "0.0",
"observedPosAmplitudeUnits" : "feet",
 "predictedPosAmplitude" : "0.24",
"predictedPosAmplitudeUnits" : "meters",
 "predictedArrivalTime" : "2025-07-30T06:40:00Z" }, 
  
    {
       "id" : 124,
       "locationName" : "Cape Blanco",
       "locationCountry" : "United States",
       "siteSegmentID" : 0,
       "lat" : "42.850",
       "lon" : "-124.550",
   	   "observedMaxTime"  : "",
"observedPosAmplitude" : "0.0",
"observedPosAmplitudeUnits" : "feet",
 "predictedPosAmplitude" : "0.42",
"predictedPosAmplitudeUnits" : "meters",
 "predictedArrivalTime" : "2025-07-30T06:40:00Z" }, 
  
    {
       "id" : 125,
       "locationName" : "Gold Beach",
       "locationCountry" : "United States",
       "siteSegmentID" : 0,
       "lat" : "42.420",
       "lon" : "-124.400",
   	   "observedMaxTime"  : "",
"observedPosAmplitude" : "0.0",
"observedPosAmplitudeUnits" : "feet",
 "predictedPosAmplitude" : "0.0",
"predictedPosAmplitudeUnits" : "feet",
"predictedArrivalTime" : "2025-07-30T06:40:00Z" }, 
  
    {
       "id" : 126,
       "locationName" : "Pistol River",
       "locationCountry" : "United States",
       "siteSegmentID" : 0,
       "lat" : "42.290",
       "lon" : "-124.400",
   	   "observedMaxTime"  : "",
"observedPosAmplitude" : "0.0",
"observedPosAmplitudeUnits" : "feet",
 "predictedPosAmplitude" : "0.0",
"predictedPosAmplitudeUnits" : "feet",
"predictedArrivalTime" : "2025-07-30T06:40:00Z" }, 
  
    {
       "id" : 127,
       "locationName" : "Mattole River",
       "locationCountry" : "United States",
       "siteSegmentID" : 0,
       "lat" : "40.295",
       "lon" : "-124.356",
   	   "observedMaxTime"  : "",
"observedPosAmplitude" : "0.0",
"observedPosAmplitudeUnits" : "feet",
 "predictedPosAmplitude" : "0.49",
"predictedPosAmplitudeUnits" : "meters",
 "predictedArrivalTime" : "2025-07-30T06:40:00Z" }, 
  
    {
       "id" : 128,
       "locationName" : "Garibaldi",
       "locationCountry" : "United States",
       "siteSegmentID" : 0,
       "lat" : "45.567",
       "lon" : "-123.950",
   	   "observedMaxTime"  : "",
"observedPosAmplitude" : "0.0",
"observedPosAmplitudeUnits" : "feet",
 "predictedPosAmplitude" : "0.0",
"predictedPosAmplitudeUnits" : "feet",
"predictedArrivalTime" : "2025-07-30T06:45:00Z" }, 
  
    {
       "id" : 129,
       "locationName" : "Oceanside Beach",
       "locationCountry" : "United States",
       "siteSegmentID" : 0,
       "lat" : "45.450",
       "lon" : "-123.970",
   	   "observedMaxTime"  : "",
"observedPosAmplitude" : "0.0",
"observedPosAmplitudeUnits" : "feet",
 "predictedPosAmplitude" : "0.23",
"predictedPosAmplitudeUnits" : "meters",
 "predictedArrivalTime" : "2025-07-30T06:45:00Z" }, 
  
    {
       "id" : 130,
       "locationName" : "Port Moller",
       "locationCountry" : "United States",
       "siteSegmentID" : 0,
       "lat" : "55.990",
       "lon" : "-160.580",
   	   "observedMaxTime"  : "",
"observedPosAmplitude" : "0.0",
"observedPosAmplitudeUnits" : "feet",
 "predictedPosAmplitude" : "0.0",
"predictedPosAmplitudeUnits" : "feet",
"predictedArrivalTime" : "2025-07-30T06:45:00Z" }, 
  
    {
       "id" : 131,
       "locationName" : "Netarts",
       "locationCountry" : "United States",
       "siteSegmentID" : 0,
       "lat" : "45.430",
       "lon" : "-123.950",
   	   "observedMaxTime"  : "",
"observedPosAmplitude" : "0.0",
"observedPosAmplitudeUnits" : "feet",
 "predictedPosAmplitude" : "0.16",
"predictedPosAmplitudeUnits" : "meters",
 "predictedArrivalTime" : "2025-07-30T06:45:00Z" }, 
  
    {
       "id" : 132,
       "locationName" : "Nestucca Bay",
       "locationCountry" : "United States",
       "siteSegmentID" : 0,
       "lat" : "45.180",
       "lon" : "-123.980",
   	   "observedMaxTime"  : "",
"observedPosAmplitude" : "0.0",
"observedPosAmplitudeUnits" : "feet",
 "predictedPosAmplitude" : "0.21",
"predictedPosAmplitudeUnits" : "meters",
 "predictedArrivalTime" : "2025-07-30T06:45:00Z" }, 
  
    {
       "id" : 133,
       "locationName" : "Long Beach",
       "locationCountry" : "United States",
       "siteSegmentID" : 0,
       "lat" : "46.350",
       "lon" : "-124.070",
   	   "observedMaxTime"  : "",
"observedPosAmplitude" : "0.0",
"observedPosAmplitudeUnits" : "feet",
 "predictedPosAmplitude" : "0.25",
"predictedPosAmplitudeUnits" : "meters",
 "predictedArrivalTime" : "2025-07-30T06:45:00Z" }, 
  
    {
       "id" : 134,
       "locationName" : "Charleston",
       "locationCountry" : "United States",
       "siteSegmentID" : 0,
       "lat" : "43.350",
       "lon" : "-124.330",
   	   "observedMaxTime"  : "2025-07-30T18:31:00Z",
"observedPosAmplitude" : "1.05",
"observedPosAmplitudeUnits" : "feet",
 "predictedPosAmplitude" : "0.21",
"predictedPosAmplitudeUnits" : "meters",
 "predictedArrivalTime" : "2025-07-30T06:45:00Z" }, 
  
    {
       "id" : 135,
       "locationName" : "Depoe Bay",
       "locationCountry" : "United States",
       "siteSegmentID" : 0,
       "lat" : "44.820",
       "lon" : "-124.070",
   	   "observedMaxTime"  : "",
"observedPosAmplitude" : "0.0",
"observedPosAmplitudeUnits" : "feet",
 "predictedPosAmplitude" : "0.25",
"predictedPosAmplitudeUnits" : "meters",
 "predictedArrivalTime" : "2025-07-30T06:45:00Z" }, 
  
    {
       "id" : 136,
       "locationName" : "Rockaway Beach",
       "locationCountry" : "United States",
       "siteSegmentID" : 0,
       "lat" : "45.620",
       "lon" : "-123.950",
   	   "observedMaxTime"  : "",
"observedPosAmplitude" : "0.0",
"observedPosAmplitudeUnits" : "feet",
 "predictedPosAmplitude" : "0.30",
"predictedPosAmplitudeUnits" : "meters",
 "predictedArrivalTime" : "2025-07-30T06:45:00Z" }, 
  
    {
       "id" : 137,
       "locationName" : "Clatsop Spit",
       "locationCountry" : "United States",
       "siteSegmentID" : 0,
       "lat" : "46.220",
       "lon" : "-124.010",
   	   "observedMaxTime"  : "",
"observedPosAmplitude" : "0.0",
"observedPosAmplitudeUnits" : "feet",
 "predictedPosAmplitude" : "0.31",
"predictedPosAmplitudeUnits" : "meters",
 "predictedArrivalTime" : "2025-07-30T06:45:00Z" }, 
  
    {
       "id" : 138,
       "locationName" : "Lost Coast Shoreline",
       "locationCountry" : "United States",
       "siteSegmentID" : 0,
       "lat" : "40.172",
       "lon" : "-124.239",
   	   "observedMaxTime"  : "",
"observedPosAmplitude" : "0.0",
"observedPosAmplitudeUnits" : "feet",
 "predictedPosAmplitude" : "0.43",
"predictedPosAmplitudeUnits" : "meters",
 "predictedArrivalTime" : "2025-07-30T06:45:00Z" }, 
  
    {
       "id" : 139,
       "locationName" : "Umpqua River Mouth",
       "locationCountry" : "United States",
       "siteSegmentID" : 0,
       "lat" : "43.670",
       "lon" : "-124.220",
   	   "observedMaxTime"  : "",
"observedPosAmplitude" : "0.0",
"observedPosAmplitudeUnits" : "feet",
 "predictedPosAmplitude" : "0.23",
"predictedPosAmplitudeUnits" : "meters",
 "predictedArrivalTime" : "2025-07-30T06:45:00Z" }, 
  
    {
       "id" : 140,
       "locationName" : "Bastendorf Beach",
       "locationCountry" : "United States",
       "siteSegmentID" : 0,
       "lat" : "43.350",
       "lon" : "-124.350",
   	   "observedMaxTime"  : "",
"observedPosAmplitude" : "0.0",
"observedPosAmplitudeUnits" : "feet",
 "predictedPosAmplitude" : "0.29",
"predictedPosAmplitudeUnits" : "meters",
 "predictedArrivalTime" : "2025-07-30T06:45:00Z" }, 
  
    {
       "id" : 141,
       "locationName" : "Cape Mendocino",
       "locationCountry" : "United States",
       "siteSegmentID" : 0,
       "lat" : "40.517",
       "lon" : "-124.400",
   	   "observedMaxTime"  : "",
"observedPosAmplitude" : "0.0",
"observedPosAmplitudeUnits" : "feet",
 "predictedPosAmplitude" : "0.0",
"predictedPosAmplitudeUnits" : "feet",
"predictedArrivalTime" : "2025-07-30T06:45:00Z" }, 
  
    {
       "id" : 142,
       "locationName" : "Point Grenville",
       "locationCountry" : "United States",
       "siteSegmentID" : 0,
       "lat" : "47.310",
       "lon" : "-124.280",
   	   "observedMaxTime"  : "",
"observedPosAmplitude" : "0.0",
"observedPosAmplitudeUnits" : "feet",
 "predictedPosAmplitude" : "0.0",
"predictedPosAmplitudeUnits" : "feet",
"predictedArrivalTime" : "2025-07-30T06:45:00Z" }, 
  
    {
       "id" : 143,
       "locationName" : "Queets",
       "locationCountry" : "United States",
       "siteSegmentID" : 0,
       "lat" : "47.534",
       "lon" : "-124.360",
   	   "observedMaxTime"  : "",
"observedPosAmplitude" : "0.0",
"observedPosAmplitudeUnits" : "feet",
 "predictedPosAmplitude" : "0.0",
"predictedPosAmplitudeUnits" : "feet",
"predictedArrivalTime" : "2025-07-30T06:45:00Z" }, 
  
    {
       "id" : 144,
       "locationName" : "Douglas/Lane Line",
       "locationCountry" : "United States",
       "siteSegmentID" : 0,
       "lat" : "43.863",
       "lon" : "-124.168",
   	   "observedMaxTime"  : "",
"observedPosAmplitude" : "0.0",
"observedPosAmplitudeUnits" : "feet",
 "predictedPosAmplitude" : "0.0",
"predictedPosAmplitudeUnits" : "feet",
"predictedArrivalTime" : "2025-07-30T06:45:00Z" }, 
  
    {
       "id" : 145,
       "locationName" : "Bayocean Peninsula",
       "locationCountry" : "United States",
       "siteSegmentID" : 0,
       "lat" : "45.529",
       "lon" : "-123.960",
   	   "observedMaxTime"  : "",
"observedPosAmplitude" : "0.0",
"observedPosAmplitudeUnits" : "feet",
 "predictedPosAmplitude" : "0.24",
"predictedPosAmplitudeUnits" : "meters",
 "predictedArrivalTime" : "2025-07-30T06:45:00Z" }, 
  
    {
       "id" : 146,
       "locationName" : "Port Hardy",
       "locationCountry" : "Canada",
       "siteSegmentID" : 0,
       "lat" : "50.720",
       "lon" : "-127.490",
   	   "observedMaxTime"  : "",
"observedPosAmplitude" : "0.0",
"observedPosAmplitudeUnits" : "feet",
 "predictedPosAmplitude" : "0.0",
"predictedPosAmplitudeUnits" : "feet",
"predictedArrivalTime" : "2025-07-30T06:50:00Z" }, 
  
    {
       "id" : 147,
       "locationName" : "Humboldt Bay",
       "locationCountry" : "United States",
       "siteSegmentID" : 0,
       "lat" : "40.760",
       "lon" : "-124.227",
   	   "observedMaxTime"  : "2025-07-30T08:32:00Z",
"observedPosAmplitude" : "1.28",
"observedPosAmplitudeUnits" : "feet",
 "predictedPosAmplitude" : "0.31",
"predictedPosAmplitudeUnits" : "meters",
 "predictedArrivalTime" : "2025-07-30T06:50:00Z" }, 
  
    {
       "id" : 148,
       "locationName" : "Mendo/Hum County Line",
       "locationCountry" : "United States",
       "siteSegmentID" : 0,
       "lat" : "40.001",
       "lon" : "-124.035",
   	   "observedMaxTime"  : "",
"observedPosAmplitude" : "0.0",
"observedPosAmplitudeUnits" : "feet",
 "predictedPosAmplitude" : "0.0",
"predictedPosAmplitudeUnits" : "feet",
"predictedArrivalTime" : "2025-07-30T06:50:00Z" }, 
  
    {
       "id" : 149,
       "locationName" : "Fort Bragg",
       "locationCountry" : "United States",
       "siteSegmentID" : 0,
       "lat" : "39.428",
       "lon" : "-123.818",
   	   "observedMaxTime"  : "",
"observedPosAmplitude" : "0.0",
"observedPosAmplitudeUnits" : "feet",
 "predictedPosAmplitude" : "0.32",
"predictedPosAmplitudeUnits" : "meters",
 "predictedArrivalTime" : "2025-07-30T06:50:00Z" }, 
  
    {
       "id" : 150,
       "locationName" : "South Spit",
       "locationCountry" : "United States",
       "siteSegmentID" : 0,
       "lat" : "40.730",
       "lon" : "-124.250",
   	   "observedMaxTime"  : "",
"observedPosAmplitude" : "0.0",
"observedPosAmplitudeUnits" : "feet",
 "predictedPosAmplitude" : "0.27",
"predictedPosAmplitudeUnits" : "meters",
 "predictedArrivalTime" : "2025-07-30T06:50:00Z" }, 
  
    {
       "id" : 151,
       "locationName" : "Empire",
       "locationCountry" : "United States",
       "siteSegmentID" : 0,
       "lat" : "43.394",
       "lon" : "-124.284",
   	   "observedMaxTime"  : "",
"observedPosAmplitude" : "0.0",
"observedPosAmplitudeUnits" : "feet",
 "predictedPosAmplitude" : "0.16",
"predictedPosAmplitudeUnits" : "meters",
 "predictedArrivalTime" : "2025-07-30T06:50:00Z" }, 
  
    {
       "id" : 152,
       "locationName" : "Crescent City",
       "locationCountry" : "United States",
       "siteSegmentID" : 1,
       "lat" : "41.747",
       "lon" : "-124.183",
   	   "observedMaxTime"  : "2025-07-30T08:44:00Z",
"observedPosAmplitude" : "3.87",
"observedPosAmplitudeUnits" : "feet",
 "predictedPosAmplitude" : "1.16",
"predictedPosAmplitudeUnits" : "meters",
 "predictedArrivalTime" : "2025-07-30T06:50:00Z" }, 
  
    {
       "id" : 153,
       "locationName" : "Siuslaw River Mouth",
       "locationCountry" : "United States",
       "siteSegmentID" : 0,
       "lat" : "44.020",
       "lon" : "-124.150",
   	   "observedMaxTime"  : "",
"observedPosAmplitude" : "0.0",
"observedPosAmplitudeUnits" : "feet",
 "predictedPosAmplitude" : "0.28",
"predictedPosAmplitudeUnits" : "meters",
 "predictedArrivalTime" : "2025-07-30T06:50:00Z" }, 
  
    {
       "id" : 154,
       "locationName" : "Florence",
       "locationCountry" : "United States",
       "siteSegmentID" : 0,
       "lat" : "44.020",
       "lon" : "-124.150",
   	   "observedMaxTime"  : "",
"observedPosAmplitude" : "0.0",
"observedPosAmplitudeUnits" : "feet",
 "predictedPosAmplitude" : "0.0",
"predictedPosAmplitudeUnits" : "feet",
"predictedArrivalTime" : "2025-07-30T06:50:00Z" }, 
  
    {
       "id" : 155,
       "locationName" : "Ten Mile River Beach",
       "locationCountry" : "United States",
       "siteSegmentID" : 0,
       "lat" : "39.530",
       "lon" : "-123.780",
   	   "observedMaxTime"  : "",
"observedPosAmplitude" : "0.0",
"observedPosAmplitudeUnits" : "feet",
 "predictedPosAmplitude" : "0.49",
"predictedPosAmplitudeUnits" : "meters",
 "predictedArrivalTime" : "2025-07-30T06:50:00Z" }, 
  
    {
       "id" : 156,
       "locationName" : "Cannon Beach",
       "locationCountry" : "United States",
       "siteSegmentID" : 0,
       "lat" : "45.900",
       "lon" : "-123.970",
   	   "observedMaxTime"  : "",
"observedPosAmplitude" : "0.0",
"observedPosAmplitudeUnits" : "feet",
 "predictedPosAmplitude" : "0.29",
"predictedPosAmplitudeUnits" : "meters",
 "predictedArrivalTime" : "2025-07-30T06:50:00Z" }, 
  
    {
       "id" : 157,
       "locationName" : "Mendocino",
       "locationCountry" : "United States",
       "siteSegmentID" : 0,
       "lat" : "39.320",
       "lon" : "-123.820",
   	   "observedMaxTime"  : "",
"observedPosAmplitude" : "0.0",
"observedPosAmplitudeUnits" : "feet",
 "predictedPosAmplitude" : "0.30",
"predictedPosAmplitudeUnits" : "meters",
 "predictedArrivalTime" : "2025-07-30T06:50:00Z" }, 
  
    {
       "id" : 158,
       "locationName" : "Brookings",
       "locationCountry" : "United States",
       "siteSegmentID" : 0,
       "lat" : "42.030",
       "lon" : "-124.270",
   	   "observedMaxTime"  : "",
"observedPosAmplitude" : "0.0",
"observedPosAmplitudeUnits" : "feet",
 "predictedPosAmplitude" : "0.35",
"predictedPosAmplitudeUnits" : "meters",
 "predictedArrivalTime" : "2025-07-30T06:50:00Z" }, 
  
    {
       "id" : 159,
       "locationName" : "Siletz Bay",
       "locationCountry" : "United States",
       "siteSegmentID" : 0,
       "lat" : "44.900",
       "lon" : "-124.000",
   	   "observedMaxTime"  : "",
"observedPosAmplitude" : "0.0",
"observedPosAmplitudeUnits" : "feet",
 "predictedPosAmplitude" : "0.30",
"predictedPosAmplitudeUnits" : "meters",
 "predictedArrivalTime" : "2025-07-30T06:50:00Z" }, 
  
    {
       "id" : 160,
       "locationName" : "Manzanita",
       "locationCountry" : "United States",
       "siteSegmentID" : 0,
       "lat" : "45.720",
       "lon" : "-123.950",
   	   "observedMaxTime"  : "",
"observedPosAmplitude" : "0.0",
"observedPosAmplitudeUnits" : "feet",
 "predictedPosAmplitude" : "0.23",
"predictedPosAmplitudeUnits" : "meters",
 "predictedArrivalTime" : "2025-07-30T06:50:00Z" }, 
  
    {
       "id" : 161,
       "locationName" : "Westport",
       "locationCountry" : "United States",
       "siteSegmentID" : 0,
       "lat" : "46.899",
       "lon" : "-124.138",
   	   "observedMaxTime"  : "",
"observedPosAmplitude" : "0.0",
"observedPosAmplitudeUnits" : "feet",
 "predictedPosAmplitude" : "0.22",
"predictedPosAmplitudeUnits" : "meters",
 "predictedArrivalTime" : "2025-07-30T06:50:00Z" }, 
  
    {
       "id" : 162,
       "locationName" : "Moclips",
       "locationCountry" : "United States",
       "siteSegmentID" : 0,
       "lat" : "47.230",
       "lon" : "-124.220",
   	   "observedMaxTime"  : "",
"observedPosAmplitude" : "0.0",
"observedPosAmplitudeUnits" : "feet",
 "predictedPosAmplitude" : "0.30",
"predictedPosAmplitudeUnits" : "meters",
 "predictedArrivalTime" : "2025-07-30T06:50:00Z" }, 
  
    {
       "id" : 163,
       "locationName" : "Bamfield",
       "locationCountry" : "Canada",
       "siteSegmentID" : 0,
       "lat" : "48.840",
       "lon" : "-125.140",
   	   "observedMaxTime"  : "2025-07-30T07:53:00Z",
"observedPosAmplitude" : "0.36",
"observedPosAmplitudeUnits" : "feet",
 "predictedPosAmplitude" : "0.0",
"predictedPosAmplitudeUnits" : "feet",
"predictedArrivalTime" : "2025-07-30T06:50:00Z" }, 
  
    {
       "id" : 164,
       "locationName" : "Hoh",
       "locationCountry" : "United States",
       "siteSegmentID" : 0,
       "lat" : "47.748",
       "lon" : "-124.439",
   	   "observedMaxTime"  : "",
"observedPosAmplitude" : "0.0",
"observedPosAmplitudeUnits" : "feet",
 "predictedPosAmplitude" : "0.0",
"predictedPosAmplitudeUnits" : "feet",
"predictedArrivalTime" : "2025-07-30T06:50:00Z" }, 
  
    {
       "id" : 165,
       "locationName" : "Eureka",
       "locationCountry" : "United States",
       "siteSegmentID" : 0,
       "lat" : "40.800",
       "lon" : "-124.180",
   	   "observedMaxTime"  : "",
"observedPosAmplitude" : "0.0",
"observedPosAmplitudeUnits" : "feet",
 "predictedPosAmplitude" : "0.31",
"predictedPosAmplitudeUnits" : "meters",
 "predictedArrivalTime" : "2025-07-30T06:55:00Z" }, 
  
    {
       "id" : 166,
       "locationName" : "Newport coast",
       "locationCountry" : "United States",
       "siteSegmentID" : 0,
       "lat" : "44.627",
       "lon" : "-124.070",
   	   "observedMaxTime"  : "",
"observedPosAmplitude" : "0.0",
"observedPosAmplitudeUnits" : "feet",
 "predictedPosAmplitude" : "0.30",
"predictedPosAmplitudeUnits" : "meters",
 "predictedArrivalTime" : "2025-07-30T06:55:00Z" }, 
  
    {
       "id" : 167,
       "locationName" : "Nikiski",
       "locationCountry" : "United States",
       "siteSegmentID" : 0,
       "lat" : "60.683",
       "lon" : "-151.398",
   	   "observedMaxTime"  : "",
"observedPosAmplitude" : "0.0",
"observedPosAmplitudeUnits" : "feet",
 "predictedPosAmplitude" : "0.0",
"predictedPosAmplitudeUnits" : "feet",
"predictedArrivalTime" : "2025-07-30T06:55:00Z" }, 
  
    {
       "id" : 168,
       "locationName" : "Yaquina John Point",
       "locationCountry" : "United States",
       "siteSegmentID" : 0,
       "lat" : "44.430",
       "lon" : "-124.080",
   	   "observedMaxTime"  : "",
"observedPosAmplitude" : "0.0",
"observedPosAmplitudeUnits" : "feet",
 "predictedPosAmplitude" : "0.23",
"predictedPosAmplitudeUnits" : "meters",
 "predictedArrivalTime" : "2025-07-30T06:55:00Z" }, 
  
    {
       "id" : 169,
       "locationName" : "Seaside City",
       "locationCountry" : "United States",
       "siteSegmentID" : 0,
       "lat" : "45.993",
       "lon" : "-123.923",
   	   "observedMaxTime"  : "",
"observedPosAmplitude" : "0.0",
"observedPosAmplitudeUnits" : "feet",
 "predictedPosAmplitude" : "0.0",
"predictedPosAmplitudeUnits" : "feet",
"predictedArrivalTime" : "2025-07-30T06:55:00Z" }, 
  
    {
       "id" : 170,
       "locationName" : "Necanicum R. Mouth",
       "locationCountry" : "United States",
       "siteSegmentID" : 0,
       "lat" : "46.020",
       "lon" : "-123.930",
   	   "observedMaxTime"  : "",
"observedPosAmplitude" : "0.0",
"observedPosAmplitudeUnits" : "feet",
 "predictedPosAmplitude" : "0.36",
"predictedPosAmplitudeUnits" : "meters",
 "predictedArrivalTime" : "2025-07-30T06:55:00Z" }, 
  
    {
       "id" : 171,
       "locationName" : "Seaside",
       "locationCountry" : "United States",
       "siteSegmentID" : 0,
       "lat" : "46.000",
       "lon" : "-123.933",
   	   "observedMaxTime"  : "",
"observedPosAmplitude" : "0.0",
"observedPosAmplitudeUnits" : "feet",
 "predictedPosAmplitude" : "0.0",
"predictedPosAmplitudeUnits" : "feet",
"predictedArrivalTime" : "2025-07-30T06:55:00Z" }, 
  
    {
       "id" : 172,
       "locationName" : "North Spit coast",
       "locationCountry" : "United States",
       "siteSegmentID" : 0,
       "lat" : "40.962",
       "lon" : "-124.132",
   	   "observedMaxTime"  : "",
"observedPosAmplitude" : "0.0",
"observedPosAmplitudeUnits" : "feet",
 "predictedPosAmplitude" : "0.62",
"predictedPosAmplitudeUnits" : "meters",
 "predictedArrivalTime" : "2025-07-30T06:55:00Z" }, 
  
    {
       "id" : 173,
       "locationName" : "Yachats",
       "locationCountry" : "United States",
       "siteSegmentID" : 0,
       "lat" : "44.320",
       "lon" : "-124.120",
   	   "observedMaxTime"  : "",
"observedPosAmplitude" : "0.0",
"observedPosAmplitudeUnits" : "feet",
 "predictedPosAmplitude" : "0.23",
"predictedPosAmplitudeUnits" : "meters",
 "predictedArrivalTime" : "2025-07-30T06:55:00Z" }, 
  
    {
       "id" : 174,
       "locationName" : "Newport",
       "locationCountry" : "United States",
       "siteSegmentID" : 0,
       "lat" : "44.617",
       "lon" : "-124.067",
   	   "observedMaxTime"  : "2025-07-30T13:11:00Z",
"observedPosAmplitude" : "0.66",
"observedPosAmplitudeUnits" : "feet",
 "predictedPosAmplitude" : "0.0",
"predictedPosAmplitudeUnits" : "feet",
"predictedArrivalTime" : "2025-07-30T06:55:00Z" }, 
  
    {
       "id" : 175,
       "locationName" : "Westport South Bay",
       "locationCountry" : "United States",
       "siteSegmentID" : 0,
       "lat" : "46.907",
       "lon" : "-124.107",
   	   "observedMaxTime"  : "2025-07-30T07:43:00Z",
"observedPosAmplitude" : "0.46",
"observedPosAmplitudeUnits" : "feet",
 "predictedPosAmplitude" : "0.0",
"predictedPosAmplitudeUnits" : "feet",
"predictedArrivalTime" : "2025-07-30T06:55:00Z" }, 
  
    {
       "id" : 176,
       "locationName" : "Gualala River",
       "locationCountry" : "United States",
       "siteSegmentID" : 0,
       "lat" : "38.768",
       "lon" : "-123.534",
   	   "observedMaxTime"  : "",
"observedPosAmplitude" : "0.0",
"observedPosAmplitudeUnits" : "feet",
 "predictedPosAmplitude" : "0.0",
"predictedPosAmplitudeUnits" : "feet",
"predictedArrivalTime" : "2025-07-30T06:55:00Z" }, 
  
    {
       "id" : 177,
       "locationName" : "The Oregon/Cal. Border",
       "locationCountry" : "United States",
       "siteSegmentID" : 1,
       "lat" : "42.000",
       "lon" : "-124.217",
   	   "observedMaxTime"  : "",
"observedPosAmplitude" : "0.0",
"observedPosAmplitudeUnits" : "feet",
 "predictedPosAmplitude" : "0.0",
"predictedPosAmplitudeUnits" : "feet",
"predictedArrivalTime" : "2025-07-30T06:55:00Z" }, 
  
    {
       "id" : 178,
       "locationName" : "Arena Cove",
       "locationCountry" : "United States",
       "siteSegmentID" : 0,
       "lat" : "38.915",
       "lon" : "-123.711",
   	   "observedMaxTime"  : "2025-07-30T08:18:00Z",
"observedPosAmplitude" : "2.92",
"observedPosAmplitudeUnits" : "feet",
 "predictedPosAmplitude" : "0.47",
"predictedPosAmplitudeUnits" : "meters",
 "predictedArrivalTime" : "2025-07-30T06:55:00Z" }, 
  
    {
       "id" : 179,
       "locationName" : "Trinidad",
       "locationCountry" : "United States",
       "siteSegmentID" : 0,
       "lat" : "41.050",
       "lon" : "-124.130",
   	   "observedMaxTime"  : "",
"observedPosAmplitude" : "0.0",
"observedPosAmplitudeUnits" : "feet",
 "predictedPosAmplitude" : "0.71",
"predictedPosAmplitudeUnits" : "meters",
 "predictedArrivalTime" : "2025-07-30T06:55:00Z" }, 
  
    {
       "id" : 180,
       "locationName" : "Elk",
       "locationCountry" : "United States",
       "siteSegmentID" : 0,
       "lat" : "39.120",
       "lon" : "-123.720",
   	   "observedMaxTime"  : "",
"observedPosAmplitude" : "0.0",
"observedPosAmplitudeUnits" : "feet",
 "predictedPosAmplitude" : "0.42",
"predictedPosAmplitudeUnits" : "meters",
 "predictedArrivalTime" : "2025-07-30T06:55:00Z" }, 
  
    {
       "id" : 181,
       "locationName" : "Hammond",
       "locationCountry" : "United States",
       "siteSegmentID" : 0,
       "lat" : "46.202",
       "lon" : "-123.945",
   	   "observedMaxTime"  : "",
"observedPosAmplitude" : "0.0",
"observedPosAmplitudeUnits" : "feet",
 "predictedPosAmplitude" : "0.0",
"predictedPosAmplitudeUnits" : "feet",
"predictedArrivalTime" : "2025-07-30T07:00:00Z" }, 
  
    {
       "id" : 182,
       "locationName" : "Klamath River Mouth",
       "locationCountry" : "United States",
       "siteSegmentID" : 1,
       "lat" : "41.530",
       "lon" : "-124.080",
   	   "observedMaxTime"  : "",
"observedPosAmplitude" : "0.0",
"observedPosAmplitudeUnits" : "feet",
 "predictedPosAmplitude" : "0.71",
"predictedPosAmplitudeUnits" : "meters",
 "predictedArrivalTime" : "2025-07-30T07:00:00Z" }, 
  
    {
       "id" : 183,
       "locationName" : "Humboldt/Del Norte Line",
       "locationCountry" : "United States",
       "siteSegmentID" : 1,
       "lat" : "41.465",
       "lon" : "-124.066",
   	   "observedMaxTime"  : "",
"observedPosAmplitude" : "0.0",
"observedPosAmplitudeUnits" : "feet",
 "predictedPosAmplitude" : "0.0",
"predictedPosAmplitudeUnits" : "feet",
"predictedArrivalTime" : "2025-07-30T07:00:00Z" }, 
  
    {
       "id" : 184,
       "locationName" : "Carmel",
       "locationCountry" : "United States",
       "siteSegmentID" : 0,
       "lat" : "36.550",
       "lon" : "-121.930",
   	   "observedMaxTime"  : "",
"observedPosAmplitude" : "0.0",
"observedPosAmplitudeUnits" : "feet",
 "predictedPosAmplitude" : "0.15",
"predictedPosAmplitudeUnits" : "meters",
 "predictedArrivalTime" : "2025-07-30T07:05:00Z" }, 
  
    {
       "id" : 185,
       "locationName" : "Point Sur",
       "locationCountry" : "United States",
       "siteSegmentID" : 0,
       "lat" : "36.310",
       "lon" : "-121.900",
   	   "observedMaxTime"  : "",
"observedPosAmplitude" : "0.0",
"observedPosAmplitudeUnits" : "feet",
 "predictedPosAmplitude" : "0.24",
"predictedPosAmplitudeUnits" : "meters",
 "predictedArrivalTime" : "2025-07-30T07:10:00Z" }, 
  
    {
       "id" : 186,
       "locationName" : "Davenport",
       "locationCountry" : "United States",
       "siteSegmentID" : 0,
       "lat" : "37.015",
       "lon" : "-122.208",
   	   "observedMaxTime"  : "",
"observedPosAmplitude" : "0.0",
"observedPosAmplitudeUnits" : "feet",
 "predictedPosAmplitude" : "0.0",
"predictedPosAmplitudeUnits" : "feet",
"predictedArrivalTime" : "2025-07-30T07:10:00Z" }, 
  
    {
       "id" : 187,
       "locationName" : "Toke Point",
       "locationCountry" : "United States",
       "siteSegmentID" : 0,
       "lat" : "46.708",
       "lon" : "-123.967",
   	   "observedMaxTime"  : "2025-07-30T20:39:00Z",
"observedPosAmplitude" : "0.56",
"observedPosAmplitudeUnits" : "feet",
 "predictedPosAmplitude" : "0.0",
"predictedPosAmplitudeUnits" : "feet",
"predictedArrivalTime" : "2025-07-30T07:10:00Z" }, 
  
    {
       "id" : 188,
       "locationName" : "Point Reyes",
       "locationCountry" : "United States",
       "siteSegmentID" : 0,
       "lat" : "38.000",
       "lon" : "-123.033",
   	   "observedMaxTime"  : "2025-07-30T11:26:00Z",
"observedPosAmplitude" : "2.53",
"observedPosAmplitudeUnits" : "feet",
 "predictedPosAmplitude" : "0.54",
"predictedPosAmplitudeUnits" : "meters",
 "predictedArrivalTime" : "2025-07-30T07:10:00Z" }, 
  
    {
       "id" : 189,
       "locationName" : "Russian River Mouth",
       "locationCountry" : "United States",
       "siteSegmentID" : 0,
       "lat" : "38.449",
       "lon" : "-123.132",
   	   "observedMaxTime"  : "",
"observedPosAmplitude" : "0.0",
"observedPosAmplitudeUnits" : "feet",
 "predictedPosAmplitude" : "0.50",
"predictedPosAmplitudeUnits" : "meters",
 "predictedArrivalTime" : "2025-07-30T07:10:00Z" }, 
  
    {
       "id" : 190,
       "locationName" : "Bodega Bay",
       "locationCountry" : "United States",
       "siteSegmentID" : 0,
       "lat" : "38.300",
       "lon" : "-123.020",
   	   "observedMaxTime"  : "",
"observedPosAmplitude" : "0.0",
"observedPosAmplitudeUnits" : "feet",
 "predictedPosAmplitude" : "0.31",
"predictedPosAmplitudeUnits" : "meters",
 "predictedArrivalTime" : "2025-07-30T07:10:00Z" }, 
  
    {
       "id" : 191,
       "locationName" : "Point Reyes Beach",
       "locationCountry" : "United States",
       "siteSegmentID" : 0,
       "lat" : "38.080",
       "lon" : "-122.980",
   	   "observedMaxTime"  : "",
"observedPosAmplitude" : "0.0",
"observedPosAmplitudeUnits" : "feet",
 "predictedPosAmplitude" : "0.31",
"predictedPosAmplitudeUnits" : "meters",
 "predictedArrivalTime" : "2025-07-30T07:10:00Z" }, 
  
    {
       "id" : 192,
       "locationName" : "Moss Landing",
       "locationCountry" : "United States",
       "siteSegmentID" : 0,
       "lat" : "36.804",
       "lon" : "-121.794",
   	   "observedMaxTime"  : "",
"observedPosAmplitude" : "0.0",
"observedPosAmplitudeUnits" : "feet",
 "predictedPosAmplitude" : "0.17",
"predictedPosAmplitudeUnits" : "meters",
 "predictedArrivalTime" : "2025-07-30T07:10:00Z" }, 
  
    {
       "id" : 193,
       "locationName" : "Santa Cruz",
       "locationCountry" : "United States",
       "siteSegmentID" : 0,
       "lat" : "36.950",
       "lon" : "-122.030",
   	   "observedMaxTime"  : "",
"observedPosAmplitude" : "0.0",
"observedPosAmplitudeUnits" : "feet",
 "predictedPosAmplitude" : "0.36",
"predictedPosAmplitudeUnits" : "meters",
 "predictedArrivalTime" : "2025-07-30T07:15:00Z" }, 
  
    {
       "id" : 194,
       "locationName" : "Patricia Bay",
       "locationCountry" : "Canada",
       "siteSegmentID" : 0,
       "lat" : "48.400",
       "lon" : "-123.400",
   	   "observedMaxTime"  : "",
"observedPosAmplitude" : "0.0",
"observedPosAmplitudeUnits" : "feet",
 "predictedPosAmplitude" : "0.0",
"predictedPosAmplitudeUnits" : "feet",
"predictedArrivalTime" : "2025-07-30T07:15:00Z" }, 
  
    {
       "id" : 195,
       "locationName" : "Monterey",
       "locationCountry" : "United States",
       "siteSegmentID" : 0,
       "lat" : "36.605",
       "lon" : "-121.890",
   	   "observedMaxTime"  : "2025-07-30T11:28:00Z",
"observedPosAmplitude" : "1.44",
"observedPosAmplitudeUnits" : "feet",
 "predictedPosAmplitude" : "0.25",
"predictedPosAmplitudeUnits" : "meters",
 "predictedArrivalTime" : "2025-07-30T07:15:00Z" }, 
  
    {
       "id" : 196,
       "locationName" : "Port Angeles",
       "locationCountry" : "United States",
       "siteSegmentID" : 0,
       "lat" : "48.125",
       "lon" : "-123.440",
   	   "observedMaxTime"  : "2025-07-30T13:46:00Z",
"observedPosAmplitude" : "1.12",
"observedPosAmplitudeUnits" : "feet",
 "predictedPosAmplitude" : "0.16",
"predictedPosAmplitudeUnits" : "meters",
 "predictedArrivalTime" : "2025-07-30T07:15:00Z" }, 
  
    {
       "id" : 197,
       "locationName" : "Astoria",
       "locationCountry" : "United States",
       "siteSegmentID" : 0,
       "lat" : "46.193",
       "lon" : "-123.810",
   	   "observedMaxTime"  : "2025-07-30T12:29:00Z",
"observedPosAmplitude" : "0.46",
"observedPosAmplitudeUnits" : "feet",
 "predictedPosAmplitude" : "0.09",
"predictedPosAmplitudeUnits" : "meters",
 "predictedArrivalTime" : "2025-07-30T07:15:00Z" }, 
  
    {
       "id" : 198,
       "locationName" : "Victoria Harbor",
       "locationCountry" : "Canada",
       "siteSegmentID" : 0,
       "lat" : "48.420",
       "lon" : "-123.370",
   	   "observedMaxTime"  : "2025-07-30T08:23:00Z",
"observedPosAmplitude" : "0.20",
"observedPosAmplitudeUnits" : "feet",
 "predictedPosAmplitude" : "0.0",
"predictedPosAmplitudeUnits" : "feet",
"predictedArrivalTime" : "2025-07-30T07:20:00Z" }, 
  
    {
       "id" : 199,
       "locationName" : "Rio Del Mar",
       "locationCountry" : "United States",
       "siteSegmentID" : 0,
       "lat" : "36.970",
       "lon" : "-121.920",
   	   "observedMaxTime"  : "",
"observedPosAmplitude" : "0.0",
"observedPosAmplitudeUnits" : "feet",
 "predictedPosAmplitude" : "0.47",
"predictedPosAmplitudeUnits" : "meters",
 "predictedArrivalTime" : "2025-07-30T07:20:00Z" }, 
  
    {
       "id" : 200,
       "locationName" : "Ragged Point",
       "locationCountry" : "United States",
       "siteSegmentID" : 0,
       "lat" : "35.798",
       "lon" : "-121.350",
   	   "observedMaxTime"  : "",
"observedPosAmplitude" : "0.0",
"observedPosAmplitudeUnits" : "feet",
 "predictedPosAmplitude" : "0.0",
"predictedPosAmplitudeUnits" : "feet",
"predictedArrivalTime" : "2025-07-30T07:20:00Z" }, 
  
    {
       "id" : 201,
       "locationName" : "Platform Harvest",
       "locationCountry" : "United States",
       "siteSegmentID" : 0,
       "lat" : "34.468",
       "lon" : "-120.673",
   	   "observedMaxTime"  : "",
"observedPosAmplitude" : "0.0",
"observedPosAmplitudeUnits" : "feet",
 "predictedPosAmplitude" : "0.11",
"predictedPosAmplitudeUnits" : "meters",
 "predictedArrivalTime" : "2025-07-30T07:20:00Z" }, 
  
    {
       "id" : 202,
       "locationName" : "Half Moon Bay",
       "locationCountry" : "United States",
       "siteSegmentID" : 0,
       "lat" : "37.470",
       "lon" : "-122.450",
   	   "observedMaxTime"  : "",
"observedPosAmplitude" : "0.0",
"observedPosAmplitudeUnits" : "feet",
 "predictedPosAmplitude" : "0.45",
"predictedPosAmplitudeUnits" : "meters",
 "predictedArrivalTime" : "2025-07-30T07:20:00Z" }, 
  
    {
       "id" : 203,
       "locationName" : "Bella Bella",
       "locationCountry" : "Canada",
       "siteSegmentID" : 0,
       "lat" : "52.160",
       "lon" : "-128.140",
   	   "observedMaxTime"  : "2025-07-30T00:24:00Z",
"observedPosAmplitude" : "0.46",
"observedPosAmplitudeUnits" : "feet",
 "predictedPosAmplitude" : "0.0",
"predictedPosAmplitudeUnits" : "feet",
"predictedArrivalTime" : "2025-07-30T07:25:00Z" }, 
  
    {
       "id" : 204,
       "locationName" : "Bolinas",
       "locationCountry" : "United States",
       "siteSegmentID" : 0,
       "lat" : "37.903",
       "lon" : "-122.686",
   	   "observedMaxTime"  : "",
"observedPosAmplitude" : "0.0",
"observedPosAmplitudeUnits" : "feet",
 "predictedPosAmplitude" : "0.43",
"predictedPosAmplitudeUnits" : "meters",
 "predictedArrivalTime" : "2025-07-30T07:25:00Z" }, 
  
    {
       "id" : 205,
       "locationName" : "Bolinas Lagoon",
       "locationCountry" : "United States",
       "siteSegmentID" : 0,
       "lat" : "37.908",
       "lon" : "-122.679",
   	   "observedMaxTime"  : "",
"observedPosAmplitude" : "0.0",
"observedPosAmplitudeUnits" : "feet",
 "predictedPosAmplitude" : "0.31",
"predictedPosAmplitudeUnits" : "meters",
 "predictedArrivalTime" : "2025-07-30T07:25:00Z" }, 
  
    {
       "id" : 206,
       "locationName" : "DART 46412",
       "locationCountry" : "United States",
       "siteSegmentID" : 0,
       "lat" : "32.457",
       "lon" : "-120.561",
   	   "observedMaxTime"  : "",
"observedPosAmplitude" : "0.0",
"observedPosAmplitudeUnits" : "feet",
 "predictedPosAmplitude" : "0.0",
"predictedPosAmplitudeUnits" : "feet",
"predictedArrivalTime" : "2025-07-30T07:25:00Z" }, 
  
    {
       "id" : 207,
       "locationName" : "Pacifica",
       "locationCountry" : "United States",
       "siteSegmentID" : 0,
       "lat" : "37.630",
       "lon" : "-122.500",
   	   "observedMaxTime"  : "",
"observedPosAmplitude" : "0.0",
"observedPosAmplitudeUnits" : "feet",
 "predictedPosAmplitude" : "0.53",
"predictedPosAmplitudeUnits" : "meters",
 "predictedArrivalTime" : "2025-07-30T07:25:00Z" }, 
  
    {
       "id" : 208,
       "locationName" : "Point Conception",
       "locationCountry" : "United States",
       "siteSegmentID" : 0,
       "lat" : "34.449",
       "lon" : "-120.473",
   	   "observedMaxTime"  : "",
"observedPosAmplitude" : "0.0",
"observedPosAmplitudeUnits" : "feet",
 "predictedPosAmplitude" : "0.0",
"predictedPosAmplitudeUnits" : "feet",
"predictedArrivalTime" : "2025-07-30T07:30:00Z" }, 
  
    {
       "id" : 209,
       "locationName" : "Stinson Beach",
       "locationCountry" : "United States",
       "siteSegmentID" : 0,
       "lat" : "37.895",
       "lon" : "-122.643",
   	   "observedMaxTime"  : "",
"observedPosAmplitude" : "0.0",
"observedPosAmplitudeUnits" : "feet",
 "predictedPosAmplitude" : "0.38",
"predictedPosAmplitudeUnits" : "meters",
 "predictedArrivalTime" : "2025-07-30T07:30:00Z" }, 
  
    {
       "id" : 210,
       "locationName" : "Diablo Canyon",
       "locationCountry" : "United States",
       "siteSegmentID" : 0,
       "lat" : "35.205",
       "lon" : "-120.858",
   	   "observedMaxTime"  : "",
"observedPosAmplitude" : "0.0",
"observedPosAmplitudeUnits" : "feet",
 "predictedPosAmplitude" : "0.34",
"predictedPosAmplitudeUnits" : "meters",
 "predictedArrivalTime" : "2025-07-30T07:30:00Z" }, 
  
    {
       "id" : 211,
       "locationName" : "Morro Bay",
       "locationCountry" : "United States",
       "siteSegmentID" : 0,
       "lat" : "35.370",
       "lon" : "-120.870",
   	   "observedMaxTime"  : "",
"observedPosAmplitude" : "0.0",
"observedPosAmplitudeUnits" : "feet",
 "predictedPosAmplitude" : "0.42",
"predictedPosAmplitudeUnits" : "meters",
 "predictedArrivalTime" : "2025-07-30T07:30:00Z" }, 
  
    {
       "id" : 212,
       "locationName" : "Surf",
       "locationCountry" : "United States",
       "siteSegmentID" : 0,
       "lat" : "34.680",
       "lon" : "-120.620",
   	   "observedMaxTime"  : "",
"observedPosAmplitude" : "0.0",
"observedPosAmplitudeUnits" : "feet",
 "predictedPosAmplitude" : "0.36",
"predictedPosAmplitudeUnits" : "meters",
 "predictedArrivalTime" : "2025-07-30T07:35:00Z" }, 
  
    {
       "id" : 213,
       "locationName" : "Port San Luis",
       "locationCountry" : "United States",
       "siteSegmentID" : 0,
       "lat" : "35.160",
       "lon" : "-120.763",
   	   "observedMaxTime"  : "2025-07-30T09:21:00Z",
"observedPosAmplitude" : "2.69",
"observedPosAmplitudeUnits" : "feet",
 "predictedPosAmplitude" : "0.88",
"predictedPosAmplitudeUnits" : "meters",
 "predictedArrivalTime" : "2025-07-30T07:35:00Z" }, 
  
    {
       "id" : 214,
       "locationName" : "Gaviota",
       "locationCountry" : "United States",
       "siteSegmentID" : 0,
       "lat" : "34.470",
       "lon" : "-120.220",
   	   "observedMaxTime"  : "",
"observedPosAmplitude" : "0.0",
"observedPosAmplitudeUnits" : "feet",
 "predictedPosAmplitude" : "0.12",
"predictedPosAmplitudeUnits" : "meters",
 "predictedArrivalTime" : "2025-07-30T07:35:00Z" }, 
  
    {
       "id" : 215,
       "locationName" : "Ocean Beach",
       "locationCountry" : "United States",
       "siteSegmentID" : 0,
       "lat" : "37.770",
       "lon" : "-122.510",
   	   "observedMaxTime"  : "",
"observedPosAmplitude" : "0.0",
"observedPosAmplitudeUnits" : "feet",
 "predictedPosAmplitude" : "0.32",
"predictedPosAmplitudeUnits" : "meters",
 "predictedArrivalTime" : "2025-07-30T07:35:00Z" }, 
  
    {
       "id" : 216,
       "locationName" : "Whidbey Island",
       "locationCountry" : "United States",
       "siteSegmentID" : 0,
       "lat" : "48.260",
       "lon" : "-122.760",
   	   "observedMaxTime"  : "",
"observedPosAmplitude" : "0.0",
"observedPosAmplitudeUnits" : "feet",
 "predictedPosAmplitude" : "0.0",
"predictedPosAmplitudeUnits" : "feet",
"predictedArrivalTime" : "2025-07-30T07:35:00Z" }, 
  
    {
       "id" : 217,
       "locationName" : "Pismo Beach",
       "locationCountry" : "United States",
       "siteSegmentID" : 0,
       "lat" : "35.140",
       "lon" : "-120.650",
   	   "observedMaxTime"  : "",
"observedPosAmplitude" : "0.0",
"observedPosAmplitudeUnits" : "feet",
 "predictedPosAmplitude" : "0.64",
"predictedPosAmplitudeUnits" : "meters",
 "predictedArrivalTime" : "2025-07-30T07:40:00Z" }, 
  
    {
       "id" : 218,
       "locationName" : "Lions Head",
       "locationCountry" : "United States",
       "siteSegmentID" : 0,
       "lat" : "34.870",
       "lon" : "-120.620",
   	   "observedMaxTime"  : "",
"observedPosAmplitude" : "0.0",
"observedPosAmplitudeUnits" : "feet",
 "predictedPosAmplitude" : "0.35",
"predictedPosAmplitudeUnits" : "meters",
 "predictedArrivalTime" : "2025-07-30T07:40:00Z" }, 
  
    {
       "id" : 219,
       "locationName" : "Cape Newenham",
       "locationCountry" : "United States",
       "siteSegmentID" : 0,
       "lat" : "58.699",
       "lon" : "-162.198",
   	   "observedMaxTime"  : "",
"observedPosAmplitude" : "0.0",
"observedPosAmplitudeUnits" : "feet",
 "predictedPosAmplitude" : "0.0",
"predictedPosAmplitudeUnits" : "feet",
"predictedArrivalTime" : "2025-07-30T07:40:00Z" }, 
  
    {
       "id" : 220,
       "locationName" : "Fort Point",
       "locationCountry" : "United States",
       "siteSegmentID" : 0,
       "lat" : "37.810",
       "lon" : "-122.480",
   	   "observedMaxTime"  : "",
"observedPosAmplitude" : "0.0",
"observedPosAmplitudeUnits" : "feet",
 "predictedPosAmplitude" : "0.0",
"predictedPosAmplitudeUnits" : "feet",
"predictedArrivalTime" : "2025-07-30T07:40:00Z" }, 
  
    {
       "id" : 221,
       "locationName" : "Friday Harbor",
       "locationCountry" : "United States",
       "siteSegmentID" : 0,
       "lat" : "48.547",
       "lon" : "-123.007",
   	   "observedMaxTime"  : "",
"observedPosAmplitude" : "0.0",
"observedPosAmplitudeUnits" : "feet",
 "predictedPosAmplitude" : "0.0",
"predictedPosAmplitudeUnits" : "feet",
"predictedArrivalTime" : "2025-07-30T07:40:00Z" }, 
  
    {
       "id" : 222,
       "locationName" : "San Francisco",
       "locationCountry" : "United States",
       "siteSegmentID" : 0,
       "lat" : "37.810",
       "lon" : "-122.480",
   	   "observedMaxTime"  : "2025-07-30T09:30:00Z",
"observedPosAmplitude" : "1.08",
"observedPosAmplitudeUnits" : "feet",
 "predictedPosAmplitude" : "0.20",
"predictedPosAmplitudeUnits" : "meters",
 "predictedArrivalTime" : "2025-07-30T07:40:00Z" }, 
  
    {
       "id" : 223,
       "locationName" : "Naples",
       "locationCountry" : "United States",
       "siteSegmentID" : 0,
       "lat" : "34.430",
       "lon" : "-119.950",
   	   "observedMaxTime"  : "",
"observedPosAmplitude" : "0.0",
"observedPosAmplitudeUnits" : "feet",
 "predictedPosAmplitude" : "0.13",
"predictedPosAmplitudeUnits" : "meters",
 "predictedArrivalTime" : "2025-07-30T07:40:00Z" }, 
  
    {
       "id" : 224,
       "locationName" : "Santa Cruz Island",
       "locationCountry" : "United States",
       "siteSegmentID" : 0,
       "lat" : "33.950",
       "lon" : "-119.750",
   	   "observedMaxTime"  : "",
"observedPosAmplitude" : "0.0",
"observedPosAmplitudeUnits" : "feet",
 "predictedPosAmplitude" : "0.06",
"predictedPosAmplitudeUnits" : "meters",
 "predictedArrivalTime" : "2025-07-30T07:40:00Z" }, 
  
    {
       "id" : 225,
       "locationName" : "Santa Barbara",
       "locationCountry" : "United States",
       "siteSegmentID" : 0,
       "lat" : "34.400",
       "lon" : "-119.700",
   	   "observedMaxTime"  : "2025-07-31T02:18:00Z",
"observedPosAmplitude" : "1.80",
"observedPosAmplitudeUnits" : "feet",
 "predictedPosAmplitude" : "0.28",
"predictedPosAmplitudeUnits" : "meters",
 "predictedArrivalTime" : "2025-07-30T07:45:00Z" }, 
  
    {
       "id" : 226,
       "locationName" : "Goleta",
       "locationCountry" : "United States",
       "siteSegmentID" : 0,
       "lat" : "34.414",
       "lon" : "-119.829",
   	   "observedMaxTime"  : "",
"observedPosAmplitude" : "0.0",
"observedPosAmplitudeUnits" : "feet",
 "predictedPosAmplitude" : "0.18",
"predictedPosAmplitudeUnits" : "meters",
 "predictedArrivalTime" : "2025-07-30T07:45:00Z" }, 
  
    {
       "id" : 227,
       "locationName" : "Sausalito",
       "locationCountry" : "United States",
       "siteSegmentID" : 0,
       "lat" : "37.860",
       "lon" : "-122.480",
   	   "observedMaxTime"  : "",
"observedPosAmplitude" : "0.0",
"observedPosAmplitudeUnits" : "feet",
 "predictedPosAmplitude" : "0.17",
"predictedPosAmplitudeUnits" : "meters",
 "predictedArrivalTime" : "2025-07-30T07:45:00Z" },